NR_ADMINISTRATIE,CODE_FUNCTIE,CODE_SOORT,NAAM_VOLLEDIG,full_address,POSTCODE_VEST,NAAM_PLAATS_VEST,PROVINCIE_VEST,location_status,facility_type,years_of_operation,decade_opened,decade_closed,operation_period,DT_IN_BEDRIJF,DT_UIT_BEDRIJF,latitude,longitude
32CY,U,VOS,Al Amana,Noordse Parklaan 4.0 ,3513GV,UTRECHT,Utrecht,Active,Regular Secondary School,0.5,2020s,,2024-08-01 to Present,2024-08-01,,52.1034528,5.1098805
32DA,U,VOS,Het Martin Buber,Marktstraat 6.0 ,6461CX,KERKRADE,Limburg,Active,Regular Secondary School,0.5,2020s,,2024-08-01 to Present,2024-08-01,,50.8648242,6.0629405
32DC,U,VOS,"Aida College voor rmavo, havo en vwo",Veluweplein 1.0 ,2571GA,'S-GRAVENHAGE,Zuid-Holland,Active,Regular Secondary School,0.5,2020s,,2024-08-01 to Present,2024-08-01,,52.0602101,4.292871799999999
32DE,U,VOS,"Avicenna College Den Haag voor mavo, havo en vwo",Zuidlarenstraat 6.0 ,2545VX,'S-GRAVENHAGE,Zuid-Holland,Active,Regular Secondary School,0.5,2020s,,2024-08-01 to Present,2024-08-01,,52.0508159,4.2684375
32DR,U,VOS,Focus College Amersfoort,Softwareweg 7.0 ,3821BN,AMERSFOORT,Utrecht,Active,Regular Secondary School,0.5,2020s,,2024-08-01 to Present,2024-08-01,,52.1724197,5.4129347
32DZ,U,VOS,WOW VO voor havo en vwo,Duivenpad 7.0 ,3055VE,ROTTERDAM,Zuid-Holland,Active,Regular Secondary School,0.5,2020s,,2024-08-01 to Present,2024-08-01,,51.9646936,4.4973505
32EA,U,VOS,Montessori College Maastricht voor Atheneum en Gymnasium,Wilhelminasingel 80.0 ,6221BL,MAASTRICHT,Limburg,Active,Regular Secondary School,0.5,2020s,,2024-08-01 to Present,2024-08-01,,50.8489778,5.7019741
32ER,U,PROS,Landstede PRO,Blaloweg 1.0 ,8041AH,ZWOLLE,Overijssel,Closed,Practical Education,0.2,2020s,2020s,2024-06-01 to 2024-08-01,2024-06-01,2024-08-01,52.516811,6.080319299999999
32DL,U,VOS,VO de Smaragd,Groeneweg 9.0 ,3059LC,ROTTERDAM,Zuid-Holland,Active,Regular Secondary School,1.4,2020s,,2023-09-01 to Present,2023-09-01,,51.9858304,4.597597899999999
32DM,U,VOS,Libertà College,Aardrijk 47.0 ,4824BS,BREDA,Noord-Brabant,Active,Regular Secondary School,1.4,2020s,,2023-09-01 to Present,2023-09-01,,51.6030868,4.745591999999999
32DM,U,VOS,Libertà College,Parklaan 2.0 ,4873ER,ETTEN-LEUR,Noord-Brabant,Active,Regular Secondary School,1.4,2020s,,2023-09-01 to Present,2023-09-01,,51.56848840000001,4.6424067
32DT,U,VOS,Voorhof,Guido Gezellelaan 86.0 ,2624LA,DELFT,Zuid-Holland,Active,Regular Secondary School,1.4,2020s,,2023-09-01 to Present,2023-09-01,,51.98922779999999,4.355511799999999
32EB,U,VOS,Avonturis Roosendaal,Lavadijk 185.0 ,4706KZ,ROOSENDAAL,Noord-Brabant,Active,Regular Secondary School,1.4,2020s,,2023-09-01 to Present,2023-09-01,,51.52425299999999,4.498201
32EF,U,VOS,Wondering,Udenseweg 2.0 ,5405PA,UDEN,Noord-Brabant,Active,Regular Secondary School,1.4,2020s,,2023-09-01 to Present,2023-09-01,,51.651265,5.6407386
31XT,U,VOS,Duinzigt Havo,Wijttenbachweg 23.0 ,2341VX,OEGSTGEEST,Zuid-Holland,Active,Regular Secondary School,1.5,2020s,,2023-08-01 to Present,2023-08-01,,52.1838002,4.4688779
32AJ,U,VOS,Stichting voor Voortgezet Vrijeschool Onderwijs Delft Mercurius,Molenstraat 22.0 ,2611KA,DELFT,Zuid-Holland,Active,Regular Secondary School,1.5,2020s,,2023-08-01 to Present,2023-08-01,,52.0158146,4.354965
32BK,U,VOS,De Natuurschuur,Waardpolderhoofdweg 1.0 ,1766EB,WIERINGERWAARD,Noord-Holland,Closed,Regular Secondary School,1.1,2020s,2020s,2023-01-01 to 2024-02-01,2023-01-01,2024-02-01,52.8254037,4.9012101
32CH,U,VOS,Grond - school voor leven,Westerborkerstraat 16.0 ,9442PN,ELP,Drenthe,Active,Regular Secondary School,2.1,2020s,,2023-01-01 to Present,2023-01-01,,52.8783358,6.6444584
32BE,U,VOS,Polderwijs,Ring 11.0 ,8308AL,NAGELE,Flevoland,Active,Regular Secondary School,2.2,2020s,,2022-11-01 to Present,2022-11-01,,53.10511140000001,6.1212635
31ZM,U,VOS,Labyrint,Lageweg 45.0 A,9479PA,NOORDLAREN,Groningen,Active,Regular Secondary School,2.4,2020s,,2022-08-29 to Present,2022-08-29,,53.12124790000001,6.6679954
32CX,U,VOS,The Fountain International Christian School,Hippolytuslaan 2.0 ,9991AK,MIDDELSTUM,Groningen,Active,Regular Secondary School,2.4,2020s,,2022-08-12 to Present,2022-08-12,,53.3476329,6.6471299
31TK,U,VOS,Graaf Engelbrecht voor havo en vwo,Ganzerik 3.0 ,4822RK,BREDA,Noord-Brabant,Active,Regular Secondary School,2.5,2020s,,2022-08-01 to Present,2022-08-01,,51.61647139999999,4.7311564
31ZG,U,VOS,Theodore International Startup Academy,Lorentzkade 15.0 a,2313GB,LEIDEN,Zuid-Holland,Active,Regular Secondary School,2.5,2020s,,2022-08-01 to Present,2022-08-01,,52.1512557,4.4964454
31ZW,U,VOS,Sanyu,Korte Verspronckweg 7.0 -9,2023BS,HAARLEM,Noord-Holland,Active,Regular Secondary School,2.8,2020s,,2022-04-01 to Present,2022-04-01,,52.3897247,4.623511199999999
31WT,U,VOS,Novi Mundi,Scherpenzeelseweg 90.0 ,3956KH,LEERSUM,Utrecht,Closed,Regular Secondary School,2.8,2020s,2020s,2022-03-07 to 2025-01-01,2022-03-07,2025-01-01,52.0191379,5.460952499999999
31XH,U,VOS,School de Brink,Leerlooierstraat 57.0 ,5345PK,OSS,Noord-Brabant,Active,Regular Secondary School,2.9,2020s,,2022-03-07 to Present,2022-03-07,,51.7639104,5.4942645
31XJ,U,VOS,IBBO Eldariet,Dokter van Kleefstraat 27.0 ,6217JJ,MAASTRICHT,Limburg,Active,Regular Secondary School,3.0,2020s,,2022-02-07 to Present,2022-02-07,,50.85114129999999,5.6703126
31XJ,U,VOS,IBBO Eldariet,Aureliushof 160.0 a,6215SW,MAASTRICHT,Limburg,Active,Regular Secondary School,3.0,2020s,,2022-02-07 to Present,2022-02-07,,50.8408121,5.6492198
31WX,U,VOS,IBBO Harlekijnkwarts,Kerkplein 1.0 ,6075HA,HERKENBOSCH,Limburg,Closed,Regular Secondary School,1.0,2020s,2020s,2021-09-06 to 2022-09-01,2021-09-06,2022-09-01,51.153665,6.0631284
31TZ,U,VOS,De Brug,Zwaluwplein 18.0 ,2771SC,BOSKOOP,Zuid-Holland,Active,Regular Secondary School,3.4,2020s,,2021-09-01 to Present,2021-09-01,,52.0667191,4.6389927
31UT,U,VOS,IBBO Beryl,Strypsedijk 48.0 ,3234KS,TINTE,Zuid-Holland,Active,Regular Secondary School,3.4,2020s,,2021-08-30 to Present,2021-08-30,,51.881279,4.132792
31RY,U,VOS,Zuider Gymnasium,Groene Hilledijk 315.0 ,3075EA,ROTTERDAM,Zuid-Holland,Active,Regular Secondary School,3.5,2020s,,2021-08-01 to Present,2021-08-01,,51.88457940000001,4.503405799999999
31RY,U,VOS,Zuider Gymnasium,Grift 30.0 ,3075SB,ROTTERDAM,Zuid-Holland,Active,Regular Secondary School,3.5,2020s,,2021-08-01 to Present,2021-08-01,,51.8826755,4.508814099999999
31RY,U,VOS,Zuider Gymnasium,Groene Hilledijk 493.0 ,3075EA,ROTTERDAM,Zuid-Holland,Active,Regular Secondary School,3.5,2020s,,2021-08-01 to Present,2021-08-01,,51.8840205,4.5045186
31TG,U,VOS,"Openbaar Buurtcollege Maas en Peel voor mavo, havo en vwo",Piushof 87.0 ,5981VW,PANNINGEN,Limburg,Active,Regular Secondary School,3.5,2020s,,2021-08-01 to Present,2021-08-01,,51.323263,5.9780226
31ZD,U,VOS,International French School,Anthonie van Dijckstraat 1.0 ,1077ME,AMSTERDAM,Noord-Holland,Active,Regular Secondary School,3.5,2020s,,2021-08-01 to Present,2021-08-01,,52.3482421,4.8755145
31ZF,U,VOS,Bethábara International School,Dr. Colijnstraat 4.0 ,3904ES,VEENENDAAL,Utrecht,Active,Regular Secondary School,3.5,2020s,,2021-08-01 to Present,2021-08-01,,52.0182574,5.5401773
31ZU,U,VOS,IBBO Dolomiet,Kwakkenbergweg 150.0 ,6571GB,BERG EN DAL,Gelderland,Closed,Regular Secondary School,2.3,2020s,2020s,2021-05-01 to 2023-08-01,2021-05-01,2023-08-01,51.8264775,5.9021083
31WY,U,VOS,Infinity College Eindhoven,Stadhuisplein 10.0 ,5611EM,EINDHOVEN,Noord-Brabant,Active,Regular Secondary School,4.1,2020s,,2021-01-01 to Present,2021-01-01,,51.4348568,5.4794234
31WZ,U,VOS,Infinity College Den Haag,Floris Grijpstraat 2.0 ,2596XE,'S-GRAVENHAGE,Zuid-Holland,Active,Regular Secondary School,4.1,2020s,,2021-01-01 to Present,2021-01-01,,52.09377070000001,4.320255700000001
31UB,U,VOS,De Werfklas,Nico Scheepmakerpad 18.0 ,4103VG,CULEMBORG,Gelderland,Active,Regular Secondary School,4.4,2020s,,2020-09-01 to Present,2020-09-01,,51.9464285,5.2322264
02NZ12,D,VSTS,Houtkamp College vestiging Compaan Het Hoge,Het Hoge 41.0 ,7251XV,VORDEN,Gelderland,Closed,Secondary Technical School,4.0,2020s,2020s,2020-08-01 to 2024-08-01,2020-08-01,2024-08-01,52.10302100000001,6.3069751
31RB,U,VOS,Plan B Sociocratische School,Noorderdiep 2.0 a,9501XC,STADSKANAAL,Groningen,Active,Regular Secondary School,4.6,2020s,,2020-06-01 to Present,2020-06-01,,53.02455459999999,6.8967942
31TU,U,VOS,Democratisch Onderwijs De Tijd en Ruimte,Jan Olieslagersstraat 3.0 ,5224BD,'S-HERTOGENBOSCH,Noord-Brabant,Active,Regular Secondary School,5.0,2020s,,2020-02-01 to Present,2020-02-01,,51.6976622,5.2648464
31NA,U,VOS,Instituut Cabral,Jacob van Lennepkade 334.0 ,1053NJ,AMSTERDAM,Noord-Holland,Closed,Regular Secondary School,1.5,2010s,2020s,2019-09-01 to 2021-03-05,2019-09-01,2021-03-05,52.36301020000001,4.8621716
31NT,U,VOS,Kairos College,Overhoeksplein 2.0 ,1031KS,AMSTERDAM,Noord-Holland,Closed,Regular Secondary School,1.0,2010s,2020s,2019-08-01 to 2020-08-01,2019-08-01,2020-08-01,52.38422019999999,4.9030098
31LA,U,VOS,SVPO Hengelo Mezquita College,M.A. de Ruyterstraat 3.0 ,7556CW,HENGELO OV,Overijssel,Closed,Regular Secondary School,5.0,2010s,2020s,2019-08-01 to 2024-08-01,2019-08-01,2024-08-01,52.27189980000001,6.797666
31KZ,U,VOS,SVPO Hoorn-Ida Gerhardt Academie,Blauwe Berg 5.0 ,1625NT,HOORN NH,Noord-Holland,Active,Regular Secondary School,5.5,2010s,,2019-08-01 to Present,2019-08-01,,52.648261,5.0425932
31KZ,U,VOS,SVPO Hoorn-Ida Gerhardt Academie,Blauwe Berg 13.0 ,1625NT,HOORN NH,Noord-Holland,Active,Regular Secondary School,5.5,2010s,,2019-08-01 to Present,2019-08-01,,52.6482521,5.0413427
31LB,U,VOS,SVPO Deventer-Ida Gerhardt Academie,Zwolseweg 96.0 ,7412AR,DEVENTER,Overijssel,Active,Regular Secondary School,5.5,2010s,,2019-08-01 to Present,2019-08-01,,52.261907,6.14696
31LW,U,VOS,De Nieuwste School voor vwo havo mavo,Sint Josephstraat 106.0 ,5017GK,TILBURG,Noord-Brabant,Active,Regular Secondary School,5.5,2010s,,2019-08-01 to Present,2019-08-01,,51.5554672,5.0973396
31MD,U,VOS,Lentiz Maassluis,Reviusplein 8.0 ,3141SV,MAASSLUIS,Zuid-Holland,Active,Regular Secondary School,5.5,2010s,,2019-08-01 to Present,2019-08-01,,51.92408469999999,4.2636942
31PD,U,VOS,Infinity College,Daltonlaan 400.0 ,3584BK,UTRECHT,Utrecht,Active,Regular Secondary School,5.5,2010s,,2019-08-01 to Present,2019-08-01,,52.0877785,5.1603704
31MJ,U,VOS,Infinity College,Schiekade 830.0 ,3032AL,ROTTERDAM,Zuid-Holland,Active,Regular Secondary School,6.4,2010s,,2018-09-03 to Present,2018-09-03,,51.927865,4.475108
31NB,U,VOS,In Opbouw,Agripark-Oost 2.0 ,8251KH,DRONTEN,Flevoland,Closed,Regular Secondary School,4.5,2010s,2020s,2018-09-01 to 2023-03-01,2018-09-01,2023-03-01,52.52741,5.700355
31KJ,U,VOS,de Amsterdamsche School,Speerstraat 6.0 ,1076XN,AMSTERDAM,Noord-Holland,Closed,Regular Secondary School,1.0,2010s,2010s,2018-08-01 to 2019-08-01,2018-08-01,2019-08-01,52.3491053,4.861307
31HN,U,VOS,Sint Stanislascollege Pijnacker-Rijswijk  voor vwo havo mavo vbo lwoo,Sportlaan 3.0 A,2641AZ,PIJNACKER,Zuid-Holland,Active,Regular Secondary School,6.5,2010s,,2018-08-01 to Present,2018-08-01,,52.0242959,4.4193772
31JC,U,AOCV,zone.college,Hoeflingweg 9.0 ,7241CJ,LOCHEM,Gelderland,Active,Agricultural Education,6.5,2010s,,2018-08-01 to Present,2018-08-01,,52.1644994,6.403739799999999
31JW,U,VOS,NNB,Zeldenrustlaan 2.0 ,4535GZ,TERNEUZEN,Zeeland,Active,Regular Secondary School,6.5,2010s,,2018-08-01 to Present,2018-08-01,,51.3113326,3.8583943
31HX,U,VOS,De School van HIP Laren,Barbiersweg 17.0 ,1251PA,LAREN NH,Noord-Holland,Active,Regular Secondary School,7.4,2010s,,2017-09-05 to Present,2017-09-05,,52.2547629,5.2285254
31HX,U,VOS,De School van HIP Laren,Plein 1945 27.0 ,1251MA,LAREN NH,Noord-Holland,Active,Regular Secondary School,7.4,2010s,,2017-09-05 to Present,2017-09-05,,52.2543655,5.2298857
31JY,U,VOS,Infínity College,Dalsteindreef 141.0 ,1112XJ,DIEMEN,Noord-Holland,Active,Regular Secondary School,7.4,2010s,,2017-09-04 to Present,2017-09-04,,52.3284973,4.9541963
31HW,U,VOS,HIP Utrecht,Biltstraat 144.0 ,3572BM,UTRECHT,Utrecht,Active,Regular Secondary School,7.4,2010s,,2017-08-22 to Present,2017-08-22,,52.0956456,5.1341258
31GZ,U,VOS,JOY Academy,Warmseweg 10.0 a,7075EL,ETTEN,Gelderland,Closed,Regular Secondary School,5.8,2010s,2020s,2017-08-01 to 2023-06-01,2017-08-01,2023-06-01,51.9221411,6.304352199999999
31FG,U,VOS,Tjalling Koopmans College Amsterdam voor havo en vwo,Meeuwenlaan 136.0 ,1022AM,AMSTERDAM,Noord-Holland,Closed,Regular Secondary School,7.0,2010s,2020s,2017-08-01 to 2024-08-01,2017-08-01,2024-08-01,52.3905031,4.925951
31FH,U,VOS,"Tjalling Koopmans College Utrecht voor mavo,havo en vwo",Weerdsingel W.Z. 20.0 ,3513BB,UTRECHT,Utrecht,Closed,Regular Secondary School,7.0,2010s,2020s,2017-08-01 to 2024-08-01,2017-08-01,2024-08-01,52.0958846,5.1105571
31FH,U,VOS,TKC-Utrecht voor havo en vwo,Wittevrouwenkade 4.0 ,3512CR,UTRECHT,Utrecht,Closed,Regular Secondary School,7.0,2010s,2020s,2017-08-01 to 2024-08-01,2017-08-01,2024-08-01,52.09571219999999,5.1256012
31EW,U,VOS,"'s Gravendreef College voor vbo, mavo en havo",Klaas Voskuildreef 135.0 ,2492JJ,'S-GRAVENHAGE,Zuid-Holland,Active,Regular Secondary School,7.5,2010s,,2017-08-01 to Present,2017-08-01,,52.0667062,4.399159099999999
31EX,U,VOS,"CSG Calvijn Groene Hart Barendecht voor lwoo,vbo,mavo havo en vwo",Haarspitwei 11.0 ,2992ZB,BARENDRECHT,Zuid-Holland,Active,Regular Secondary School,7.5,2010s,,2017-08-01 to Present,2017-08-01,,51.8426903,4.5348311
31GM,U,VOS,"Cornelius Haga Lyceum, Islamitische Scholengemeenschap voor mavo havo en vwo",Naritaweg 30.0 ,1043BZ,AMSTERDAM,Noord-Holland,Active,Regular Secondary School,7.5,2010s,,2017-08-01 to Present,2017-08-01,,52.3882737,4.829083199999999
31ZA,U,VOS,Amaziah International Christian School,Zuiderdiep 595.0 ,7876BJ,VALTHERMOND,Drenthe,Active,Regular Secondary School,7.5,2010s,,2017-08-01 to Present,2017-08-01,,52.9039987,7.0082181
31ZC,U,VOS,Amity International School Amsterdam,Amsterdamseweg 204.0 ,1182HL,AMSTELVEEN,Noord-Holland,Active,Regular Secondary School,7.5,2010s,,2017-08-01 to Present,2017-08-01,,52.3126913,4.8492158
31FX,U,VOS,Essenzo,Stationsplein 9.0 ,4461HP,GOES,Zeeland,Closed,Regular Secondary School,1.6,2010s,2010s,2017-02-24 to 2018-10-01,2017-02-24,2018-10-01,51.4985064,3.8902263
31FV,U,VOS,IBBO Barnsteen,Horalaan 5.0 ,6717LX,EDE,Gelderland,Closed,Regular Secondary School,4.2,2010s,2020s,2017-01-09 to 2021-04-01,2017-01-09,2021-04-01,52.020383,5.687691999999999
31FV,U,VOS,IBBO Barnsteen,Horalaan 3.0 A,6717LX,EDE,Gelderland,Closed,Regular Secondary School,4.2,2010s,2020s,2017-01-09 to 2021-04-01,2017-01-09,2021-04-01,52.0201476,5.6866321
31FL,U,VOS,LOS Deurne,Haageind 29.0 ,5751BB,DEURNE,Noord-Brabant,Active,Regular Secondary School,8.1,2010s,,2016-12-22 to Present,2016-12-22,,51.4685488,5.8010078
31FB,U,VOS,Vivere Democratisch Onderwijs,Groene tuin 1.0 ,3078KA,ROTTERDAM,Zuid-Holland,Active,Regular Secondary School,8.2,2010s,,2016-11-01 to Present,2016-11-01,,51.8914425,4.5460919
02IB09,D,VSTZ,DaCapocollege Rijksweg Zuid voor Mavo Vbo Lwoo,Valkstraat 4.0 ,6135GC,SITTARD,Limburg,Closed,Secondary Branch Location,3.0,2010s,2010s,2016-08-01 to 2019-08-01,2016-08-01,2019-08-01,51.0031426,5.853179700000001
31BL,U,VOS,De Amsterdamse Mavo & Havo,Linnaeushof 48.0 ,1098KM,AMSTERDAM,Noord-Holland,Active,Regular Secondary School,8.5,2010s,,2016-08-01 to Present,2016-08-01,,52.3519301,4.935550099999999
31CG,U,VOS,MelanchtonChristelijke Scholengemeenschap voor gymnasium atheneum havo en vmbo,Hoekeindseweg 7.0 A,2665KA,BLEISWIJK,Zuid-Holland,Active,Regular Secondary School,8.5,2010s,,2016-08-01 to Present,2016-08-01,,52.0079335,4.5263902
31CH,U,VOS,PENTA College Chr. SGM voor gymnasium atheneum havo mavo vmbo lwoo,Fazantenlaan 2.0 ,3222AM,HELLEVOETSLUIS,Zuid-Holland,Active,Regular Secondary School,8.5,2010s,,2016-08-01 to Present,2016-08-01,,51.8341949,4.1190336
31CZ,U,VOS,"Ida Gerhardt Academie voor mavo, havo en vwo",Kuipershof 4.0 ,4191KH,GELDERMALSEN,Gelderland,Active,Regular Secondary School,8.5,2010s,,2016-08-01 to Present,2016-08-01,,51.88106879999999,5.2823286
31CZ,U,VOS,"SvPO Geldermalsen - Ida Gerhardt Academie voor mavo, havo en vwo",De Terp 1.0 ,4191LG,GELDERMALSEN,Gelderland,Active,Regular Secondary School,8.5,2010s,,2016-08-01 to Present,2016-08-01,,52.3783039,4.8545416
31CZ,U,VOS,"SvPO Geldermalsen - Ida Gerhardt Academie voor havo, atheneum en gymnasium",Ossengang 45.0 ,4191LR,GELDERMALSEN,Gelderland,Active,Regular Secondary School,8.5,2010s,,2016-08-01 to Present,2016-08-01,,51.884499,5.2722813
31EE,U,VOS,De Ceder,Mauritslaan 55.0 ,2741CE,WADDINXVEEN,Zuid-Holland,Active,Regular Secondary School,8.5,2010s,,2016-08-01 to Present,2016-08-01,,52.0499532,4.656150999999999
31EE,U,VOS,De Ceder,Kievitstraat 2.0 ,2771TE,BOSKOOP,Zuid-Holland,Active,Regular Secondary School,8.5,2010s,,2016-08-01 to Present,2016-08-01,,52.0660099,4.6433943
31EH,U,VOS,Onbekend,Buitendams 45.0 ,3371BA,HARDINXVELD-GIESSENDAM,Zuid-Holland,Active,Regular Secondary School,8.5,2010s,,2016-08-01 to Present,2016-08-01,,51.8269527,4.8323515
31CX,U,VOS,De Vallei Democratisch Voorgezet Onderwijs,Hofplein 1.0 ,6665DH,DRIEL,Gelderland,Active,Regular Secondary School,9.3,2010s,,2015-10-01 to Present,2015-10-01,,51.9613682,5.8113033
31CF,U,VOS,Life!,Floraparkweg 1.0 ,1032BZ,AMSTERDAM,Noord-Holland,Active,Regular Secondary School,9.4,2010s,,2015-09-01 to Present,2015-09-01,,52.3956397,4.9204493
31CF,U,VOS,Life!,Noordeinde 124.0 H,1121AL,LANDSMEER,Noord-Holland,Active,Regular Secondary School,9.4,2010s,,2015-09-01 to Present,2015-09-01,,52.436601,4.913601
31CF,U,VOS,Democratische School Amsterdam,Akersluis 10.0 ,1066EZ,AMSTERDAM,Noord-Holland,Active,Regular Secondary School,9.4,2010s,,2015-09-01 to Present,2015-09-01,,52.3415305,4.792231699999999
31DD,U,VOS,School for Excellence,Insingerstraat 37.0 ,3766MA,SOEST,Utrecht,Active,Regular Secondary School,9.5,2010s,,2015-08-01 to Present,2015-08-01,,52.1620995,5.2786613
31YY,U,VOS,International Advent School,Frans Halsstraat 21.0 ,7021DL,ZELHEM,Gelderland,Active,Regular Secondary School,9.5,2010s,,2015-08-01 to Present,2015-08-01,,52.0083609,6.3543993
31CB,U,VOS,IBBO Chalcedoon,Osseweide 1.0 c,7943GG,MEPPEL,Drenthe,Active,Regular Secondary School,9.7,2010s,,2015-05-18 to Present,2015-05-18,,52.69609759999999,6.2199084
31CB,U,VOS,IBBO Chalcedoon,Argusvlinder 2.0 A,7943RX,MEPPEL,Drenthe,Active,Regular Secondary School,9.7,2010s,,2015-05-18 to Present,2015-05-18,,52.6980091,6.2294933
31CB,U,VOS,IBBO Chalcedoon,Linthorst Homanstraat 22.0 ,8384EE,WILHELMINAOORD,Drenthe,Active,Regular Secondary School,9.7,2010s,,2015-05-18 to Present,2015-05-18,,52.8555642,6.1668718
30YE,U,VOS,Maupertuus,Horstlaan 2.0 ,3971LC,DRIEBERGEN-RIJSENBURG,Utrecht,Active,Regular Secondary School,10.2,2010s,,2014-11-01 to Present,2014-11-01,,52.048899,5.2973909
30YE,U,VOS,Maupertuus,Hoofdstraat 248.0 ,3972LK,DRIEBERGEN-RIJSENBURG,Utrecht,Active,Regular Secondary School,10.2,2010s,,2014-11-01 to Present,2014-11-01,,52.0451023,5.295715
30YC,U,VOS,Democratisch Onderwijs Eindhoven DOE040,Den Dolech 2.0 ,5612AZ,EINDHOVEN,Noord-Brabant,Active,Regular Secondary School,10.3,2010s,,2014-10-01 to Present,2014-10-01,,51.4463595,5.484329499999999
31AB,U,VOS,Libertad,Doelen 36.0 ,4813GR,BREDA,Noord-Brabant,Closed,Regular Secondary School,8.9,2010s,2020s,2014-09-01 to 2023-08-01,2014-09-01,2023-08-01,51.5752578,4.7380138
31AB,U,VOS,Stichting Libertad Democratische School Breda,Markt 24.0 ,4841AC,PRINSENBEEK,Noord-Brabant,Closed,Regular Secondary School,8.9,2010s,2020s,2014-09-01 to 2023-08-01,2014-09-01,2023-08-01,51.9278612,4.3428984
30YP,U,VOS,Newschool.nu,Hogepad 14.0 ,3841DL,HARDERWIJK,Gelderland,Active,Regular Secondary School,10.4,2010s,,2014-09-01 to Present,2014-09-01,,52.34504949999999,5.618620099999999
30YP,U,VOS,Sudburyschool Harderwijk (was eerst Newschool.nu),Satelliet 8.0 ,3824MT,AMERSFOORT,Utrecht,Active,Regular Secondary School,10.4,2010s,,2014-09-01 to Present,2014-09-01,,52.1960638,5.3879003
30WH,U,VOS,"Avicenna College voor vwo, havo, mavo en vbo",Schere 47.0 ,3085DT,ROTTERDAM,Zuid-Holland,Active,Regular Secondary School,10.5,2010s,,2014-08-01 to Present,2014-08-01,,51.87520250000001,4.4874368
30WH,U,VOS,"Avicenna College voor vwo, havo, mavo en vbo",Montessoriweg 55.0 ,3083AN,ROTTERDAM,Zuid-Holland,Active,Regular Secondary School,10.5,2010s,,2014-08-01 to Present,2014-08-01,,51.8850097,4.4946389
30WN,U,VOS,Logi-K,Oude Almeloseweg 78.0 ,7622CZ,BORNE,Overijssel,Closed,Regular Secondary School,1.6,2010s,2010s,2014-01-01 to 2015-08-01,2014-01-01,2015-08-01,52.3065632,6.7482216
30UB,U,VOS,UniC school voor vwo en havo,Van Bijnkershoeklaan 2.0 ,3527XL,UTRECHT,Utrecht,Active,Regular Secondary School,11.5,2010s,,2013-08-01 to Present,2013-08-01,,52.0775703,5.098689
30UD,U,PROS,Pro-Koningsbeltweg,Koningsbeltstraat 4.0 ,1329AL,ALMERE,Flevoland,Active,Practical Education,11.5,2010s,,2013-08-01 to Present,2013-08-01,,52.3725229,5.2745723
30UV,U,VOS,Tjalling Koopmans College voor Vwo en Mavo,Easter Omwei 7.0 ,9254GM,HURDEGARYP,Friesland,Active,Regular Secondary School,11.5,2010s,,2013-08-01 to Present,2013-08-01,,53.213608,5.943800599999999
30UV,U,VOS,Tjalling Koopmans College voor Vwo en Mavo,Reidroas 2.0 ,9254JR,HURDEGARYP,Friesland,Active,Regular Secondary School,11.5,2010s,,2013-08-01 to Present,2013-08-01,,53.2176902,5.9339865
30UV,U,VOS,SvPO Hurdegaryp - Tjalling Koopmans College voor Vwo Havo en Mavo,Easter Omwei 1.0 ,9254GM,HURDEGARYP,Friesland,Active,Regular Secondary School,11.5,2010s,,2013-08-01 to Present,2013-08-01,,53.2134928,5.941472
30UV,U,VOS,SvPO Hurdegaryp - Tjalling Koopmans College voor Vwo Havo en Mavo,Reidroas 12.0 ,9254JR,HURDEGARYP,Friesland,Active,Regular Secondary School,11.5,2010s,,2013-08-01 to Present,2013-08-01,,53.2176331,5.9320232
30XF,U,VOS,De Ontdekking,Noorderdiep 99.0 ,9521BC,NIEUW-BUINEN,Drenthe,Active,Regular Secondary School,11.5,2010s,,2013-08-01 to Present,2013-08-01,,52.9613178,6.9407659
30XF,U,VOS,De Vuurvlinder,Electronicaweg 23.0 ,9503GA,STADSKANAAL,Groningen,Active,Regular Secondary School,11.5,2010s,,2013-08-01 to Present,2013-08-01,,52.9743539,6.9694959
31YV,U,VOS,British School of Amsterdam,Havenstraat 6.0 ,1075PR,AMSTERDAM,Noord-Holland,Active,Regular Secondary School,11.5,2010s,,2013-08-01 to Present,2013-08-01,,52.3500581,4.8560813
30WC,U,VOS,Guus Kieft,Amsterdamseweg 380.0 ,1182HS,AMSTELVEEN,Noord-Holland,Closed,Regular Secondary School,7.0,2010s,2010s,2012-08-01 to 2019-08-01,2012-08-01,2019-08-01,52.315262,4.8550754
30MM,U,PROS,"PrO Boxmeer, school voor Praktijkonderwijs",Stationsweg 38.0 b,5831CR,BOXMEER,Noord-Brabant,Active,Practical Education,12.5,2010s,,2012-08-01 to Present,2012-08-01,,51.64180469999999,5.9429776
30PP,U,VOS,"Eemsdelta College voor vwo, havo mavo en vbo",Sikkel 3.0 ,9932BD,DELFZIJL,Groningen,Active,Regular Secondary School,12.5,2010s,,2012-08-01 to Present,2012-08-01,,52.2337224,6.8842225
30PP,U,VOS,"VO Eemsdelta voor vwo, havo en vmbo",Pastorielaan 4.0 ,9901CE,APPINGEDAM,Groningen,Active,Regular Secondary School,12.5,2010s,,2012-08-01 to Present,2012-08-01,,53.3249149,6.872279199999999
30PP01,D,VSTS,"Eemsdelta College voor vwo, havo mavo en vbo",Singellaan 10.0 ,9628AL,SIDDEBUREN,Groningen,Active,Secondary Technical School,12.5,2010s,,2012-08-01 to Present,2012-08-01,,53.2486585,6.8708379
30PP01,D,VSTS,"VO Eemsdelta  voor vwo, havo en vmbo",Poststraat 1.0 ,9628AA,SIDDEBUREN,Groningen,Active,Secondary Technical School,12.5,2010s,,2012-08-01 to Present,2012-08-01,,53.248755,6.868633
30RW,U,VOS,5en5is11,Veldstraat 20.0 ,6227SZ,MAASTRICHT,Limburg,Active,Regular Secondary School,12.5,2010s,,2012-08-01 to Present,2012-08-01,,50.8357312,5.729539099999999
30RW,U,VOS,Nova Vita (voorheen5en5is11),Veldstraat 20.0 bis,6227SZ,MAASTRICHT,Limburg,Active,Regular Secondary School,12.5,2010s,,2012-08-01 to Present,2012-08-01,,50.8357312,5.729539099999999
30RW,U,VOS,Nova Vita (voorheen5en5is11),Oude Kerkstraat 10.0 a,6227SR,MAASTRICHT,Limburg,Active,Regular Secondary School,12.5,2010s,,2012-08-01 to Present,2012-08-01,,50.8400482,5.7267719
30NF,U,VOS,Terra Incognita,Dorpsstraat 30.0 ,6617AD,BERGHAREN,Gelderland,Closed,Regular Secondary School,2.7,2010s,2010s,2012-01-01 to 2014-10-01,2012-01-01,2014-10-01,51.8500115,5.6645186
30GC,U,VOS,Het 4e Gymnasium,Stavangerweg 902.0 ,1013AX,AMSTERDAM,Noord-Holland,Active,Regular Secondary School,13.5,2010s,,2011-08-01 to Present,2011-08-01,,52.3933513,4.8766118
30GC,U,VOS,Het 4e Gymnasium,Archangelweg 4.0 ,1013ZZ,AMSTERDAM,Noord-Holland,Active,Regular Secondary School,13.5,2010s,,2011-08-01 to Present,2011-08-01,,52.3942935,4.872836899999999
30GD,U,VOS,Stedelijk Gymnasium Socrates,Nieuwe Marnixstraat 90.0 ,2316ES,LEIDEN,Zuid-Holland,Active,Regular Secondary School,13.5,2010s,,2011-08-01 to Present,2011-08-01,,52.1701135,4.4980337
30JM,U,PROS,Praktijkonderwijs Fivel College,Opwierderweg 65.0 c,9902RB,APPINGEDAM,Groningen,Active,Practical Education,13.5,2010s,,2011-08-01 to Present,2011-08-01,,53.3157667,6.8771575
30JM,U,PROS,VO Eemsdelta  praktijkonderwijs,Pastorielaan 4.0 a,9901CE,APPINGEDAM,Groningen,Active,Practical Education,13.5,2010s,,2011-08-01 to Present,2011-08-01,,53.3249149,6.872279199999999
30JN,U,VOS,Onbekend,Cort van der Lindenlaan 5.0 ,1412BW,NAARDEN,Noord-Holland,Active,Regular Secondary School,13.5,2010s,,2011-08-01 to Present,2011-08-01,,52.2854638,5.1481469
30JN,U,VOS,Volantcollege voor mavo havo vwo,Nieuwe 's-Gravelandseweg 38.0 ,1405HM,BUSSUM,Noord-Holland,Active,Regular Secondary School,13.5,2010s,,2011-08-01 to Present,2011-08-01,,52.2746808,5.1539525
30LD,U,VOS,Vrije Christelijke school Westerlee,Galgeweg 55.0 -57,2671MT,NAALDWIJK,Zuid-Holland,Active,Regular Secondary School,13.5,2010s,,2011-08-01 to Present,2011-08-01,,51.9744945,4.2162996
30LD,U,VOS,Vrije Christelijke school Westerlee,Hofwijk 3.0 ,2675BW,HONSELERSDIJK,Zuid-Holland,Active,Regular Secondary School,13.5,2010s,,2011-08-01 to Present,2011-08-01,,52.2337224,6.8842225
30MR,U,VOS,Instituut voor Nederlands Internetonderwijs,Tuinstraat 23.0 ,5121EG,RIJEN,Noord-Brabant,Active,Regular Secondary School,13.5,2010s,,2011-08-01 to Present,2011-08-01,,51.5901915,4.9217432
30MU,U,VOS,"Nederlandse School Watoto, ntc-vo",  ,,,,Active,Regular Secondary School,13.5,2010s,,2011-08-01 to Present,2011-08-01,,,
30UJ,U,VOS,IBBO,Marktstraat 27.0 ,6461CT,KERKRADE,Limburg,Active,Regular Secondary School,13.5,2010s,,2011-08-01 to Present,2011-08-01,,50.8643708,6.063749
31XC,U,VOS,Lycee Francais Vincent van Gogh,Scheveningseweg 237.0 ,2584AA,'S-GRAVENHAGE,Zuid-Holland,Active,Regular Secondary School,13.5,2010s,,2011-08-01 to Present,2011-08-01,,52.1026422,4.2806974
31XV,U,VOS,Japanese School Amsterdam,Karel Klinkenbergstraat 137.0 ,1061AL,AMSTERDAM,Noord-Holland,Active,Regular Secondary School,13.5,2010s,,2011-08-01 to Present,2011-08-01,,52.36801390000001,4.8354499
31XX,U,VOS,International School Amsterdam,Sportlaan 45.0 ,1185TB,AMSTELVEEN,Noord-Holland,Active,Regular Secondary School,13.5,2010s,,2011-08-01 to Present,2011-08-01,,52.28911429999999,4.860546200000001
31XZ,U,VOS,AFNORTH International School,Ferdinand Bolstraat 1.0 ,6445EE,BRUNSSUM,Limburg,Active,Regular Secondary School,13.5,2010s,,2011-08-01 to Present,2011-08-01,,50.9349165,5.9808584
31YB,U,VOS,Deutsche Internationale Schule,Van Bleiswijkstraat 125.0 ,2582LB,'S-GRAVENHAGE,Zuid-Holland,Active,Regular Secondary School,13.5,2010s,,2011-08-01 to Present,2011-08-01,,52.09452599999999,4.2804913
31YD,U,VOS,International School Eerde,Kasteellaan 1.0 ,7731PJ,OMMEN,Overijssel,Active,Regular Secondary School,13.5,2010s,,2011-08-01 to Present,2011-08-01,,52.4845031,6.4528504
31YF,U,VOS,Nord Anglia International School Rotterdam,Verhulstlaan 21.0 ,3055WJ,ROTTERDAM,Zuid-Holland,Active,Regular Secondary School,13.5,2010s,,2011-08-01 to Present,2011-08-01,,51.9637885,4.5023469
31YH,U,VOS,Stichting The Japanese School of Rotterdam,Verhulstlaan 19.0 ,3055WJ,ROTTERDAM,Zuid-Holland,Active,Regular Secondary School,13.5,2010s,,2011-08-01 to Present,2011-08-01,,51.9640776,4.5025449
31YM,U,VOS,"British School in the Netherlands, Senior School Leidschenveen",Vrouw Avenweg 422.0 ,2493WX,'S-GRAVENHAGE,Zuid-Holland,Active,Regular Secondary School,13.5,2010s,,2011-08-01 to Present,2011-08-01,,52.055704,4.403135499999999
31YN,U,VOS,"British School in the Netherlands, Senior School Voorschoten",Jan van Hooflaan 3.0 ,2252BG,VOORSCHOTEN,Zuid-Holland,Active,Regular Secondary School,13.5,2010s,,2011-08-01 to Present,2011-08-01,,52.12096709999999,4.431343099999999
31YR,U,VOS,Indonesian School,Rijksstraatweg 679.0 ,2245CB,WASSENAAR,Zuid-Holland,Active,Regular Secondary School,13.5,2010s,,2011-08-01 to Present,2011-08-01,,52.1141209,4.3741138
31YU,U,VOS,American School of The Hague,Rijksstraatweg 200.0 ,2241BX,WASSENAAR,Zuid-Holland,Active,Regular Secondary School,13.5,2010s,,2011-08-01 to Present,2011-08-01,,52.1459071,4.422428399999999
30AU,U,VOS,Citadel College,Dijkstraat 7.0 ,6663AD,LENT,Gelderland,Active,Regular Secondary School,14.5,2010s,,2010-08-01 to Present,2010-08-01,,51.86969819999999,5.8561359
30AU,U,VOS,Citadel College voor vwo havo mavo vbo en lwoo,Dijkstraat 6.0 ,6663AD,LENT,Gelderland,Active,Regular Secondary School,14.5,2010s,,2010-08-01 to Present,2010-08-01,,51.86974290000001,5.855964
30BE,U,VOS,Houtens,De Slinger 48.0 ,3995DE,HOUTEN,Utrecht,Active,Regular Secondary School,14.5,2010s,,2010-08-01 to Present,2010-08-01,,52.03288879999999,5.1681624
30BE,U,VOS,Houtens,Kruisboog 1.0 ,3994AE,HOUTEN,Utrecht,Active,Regular Secondary School,14.5,2010s,,2010-08-01 to Present,2010-08-01,,52.029211,5.1836907
30EU,U,VOS,Markland College Zevenbergen,Gildelaan 82.0 ,4761BA,ZEVENBERGEN,Noord-Brabant,Active,Regular Secondary School,14.5,2010s,,2010-08-01 to Present,2010-08-01,,51.6404679,4.6058462
30EU,U,VOS,Markland College Zevenbergen,Vaandelweg 4.0 ,4761BC,ZEVENBERGEN,Noord-Brabant,Active,Regular Secondary School,14.5,2010s,,2010-08-01 to Present,2010-08-01,,51.6460635,4.607522599999999
30FF,U,PROS,Praktijkschool De Goudse Waarden,Calslaan 100.0 ,2804RT,GOUDA,Zuid-Holland,Active,Practical Education,14.5,2010s,,2010-08-01 to Present,2010-08-01,,52.0263846,4.7106998
30FF,U,PROS,Praktijkschool De Goudse Waarden,Kanaalstraat 31.0 ,2801SH,GOUDA,Zuid-Holland,Active,Practical Education,14.5,2010s,,2010-08-01 to Present,2010-08-01,,52.0152886,4.6959982
30FF,U,PROS,Praktijkschool De Goudse Waarden,H.J. Nederhorststraat 2.0 ,2801SC,GOUDA,Zuid-Holland,Active,Practical Education,14.5,2010s,,2010-08-01 to Present,2010-08-01,,52.016132,4.6953448
30GA,U,VOS,Parkendaal Lyceum,Kerklaan 25.0 ,7311AB,APELDOORN,Gelderland,Closed,Regular Secondary School,9.6,2000s,2010s,2009-08-01 to 2019-03-19,2009-08-01,2019-03-19,52.217671,5.9605527
30GA,U,VOS,Parkendaal Lyceum,Regentesselaan 8.0 ,7316AC,APELDOORN,Gelderland,Closed,Regular Secondary School,9.6,2000s,2010s,2009-08-01 to 2019-03-19,2009-08-01,2019-03-19,52.2177157,5.9643419
29ZT,U,VOS,Isaac Beeckman Academie Kapelle,Goessestraatweg 19.0 ,4421AD,KAPELLE,Zeeland,Closed,Regular Secondary School,15.0,2000s,2020s,2009-08-01 to 2024-08-01,2009-08-01,2024-08-01,51.4854476,3.9515034
29ZT,U,VOS,Isaac Beeckman Academie Kapelle,Stationsstraat 51.0 ,4421AK,KAPELLE,Zeeland,Closed,Regular Secondary School,15.0,2000s,2020s,2009-08-01 to 2024-08-01,2009-08-01,2024-08-01,51.48127820000001,3.9558676
30AC,U,VOS,De Vrije Ruimte VO,Laan van Poot 93.0 ,2566EA,'S-GRAVENHAGE,Zuid-Holland,Active,Regular Secondary School,16.1,2000s,,2009-01-01 to Present,2009-01-01,,52.0859579,4.261917299999999
30AC,U,VOS,De Vrije Ruimte VO,Stadhouderslaan 15.0 ,2517HV,'S-GRAVENHAGE,Zuid-Holland,Active,Regular Secondary School,16.1,2000s,,2009-01-01 to Present,2009-01-01,,52.0869556,4.281394
29VW,U,PROS,Jacob Juch Praktijkschool,Talingstraat 170.0 ,3082MH,ROTTERDAM,Zuid-Holland,Active,Practical Education,16.5,2000s,,2008-08-01 to Present,2008-08-01,,51.88499110000001,4.4664514
29VX,U,PROS,Sint Marcus praktijkschool,Huismanstraat 30.0 ,3082HK,ROTTERDAM,Zuid-Holland,Active,Practical Education,16.5,2000s,,2008-08-01 to Present,2008-08-01,,51.8851334,4.4616858
29VY,U,PROS,RSG Tromp Meesters Praktijkschool,Stationsstraat 40.0 ,8331GK,STEENWIJK,Overijssel,Active,Practical Education,16.5,2000s,,2008-08-01 to Present,2008-08-01,,52.7898581,6.121871
29VZ,U,PROS,PrO Nieuw Rotterdam,Schietbaanstraat 26.0 ,3014ZX,ROTTERDAM,Zuid-Holland,Active,Practical Education,16.5,2000s,,2008-08-01 to Present,2008-08-01,,51.9156601,4.4647298
29WG,U,VOS,De Passie,Dokter G.H. Beensweg 21.0 ,7642CH,WIERDEN,Overijssel,Active,Regular Secondary School,16.5,2000s,,2008-08-01 to Present,2008-08-01,,52.3547169,6.5803682
29WG,U,VOS,De Passie,Akkerwal 2.0 ,7642NV,WIERDEN,Overijssel,Active,Regular Secondary School,16.5,2000s,,2008-08-01 to Present,2008-08-01,,52.3529753,6.6038044
29WG,U,VOS,"de Passie, Evangelische school voor Vmbo-tl, Havo, Vwo",Esrand 2.0 ,7642ZZ,WIERDEN,Overijssel,Active,Regular Secondary School,16.5,2000s,,2008-08-01 to Present,2008-08-01,,51.9723145,6.7257887
29YT,U,VOS,Compas VMBO,Zuiderzee 200.0 ,1503HZ,ZAANDAM,Noord-Holland,Active,Regular Secondary School,16.5,2000s,,2008-08-01 to Present,2008-08-01,,52.4538097,4.833351
26JR02,D,VSTS,Joannesschool voor Praktijkonderwijs,Bernhardstraat 10.0 ,5831EC,BOXMEER,Noord-Brabant,Closed,Secondary Technical School,5.0,2000s,2010s,2007-08-01 to 2012-08-01,2007-08-01,2012-08-01,51.646418,5.9441051
29RN,U,VOS,De Kampanje,Daam Fockemalaan 22.0 ,3818KG,AMERSFOORT,Utrecht,Closed,Regular Secondary School,7.7,2000s,2010s,2007-02-01 to 2014-10-01,2007-02-01,2014-10-01,52.1445613,5.3520017
29TA,U,VOS,Stichting Onoverwinlijkheisscholen VO,Nijenburg 73.0 ,1081GE,AMSTERDAM,Noord-Holland,Closed,Regular Secondary School,0.7,2000s,2000s,2007-01-01 to 2007-10-01,2007-01-01,2007-10-01,52.3282004,4.8650902
29RX,U,VOS,Eigenwijs Feerwerd VO,Valgeweg 7.0 ,9892PD,FEERWERD,Groningen,Closed,Regular Secondary School,0.9,2000s,2000s,2007-01-01 to 2007-12-01,2007-01-01,2007-12-01,53.30693979999999,6.4651934
29TB,U,VOS,Stichting Onoverwinlijkheidsscholen,Rivierenlaan 219.0 ,8226LG,LELYSTAD,Flevoland,Closed,Regular Secondary School,2.2,2000s,2000s,2007-01-01 to 2009-04-01,2007-01-01,2009-04-01,52.4889817,5.4942955
29RZ,U,VOS,Instituut Vrijbergen VO,Rijnsburgerweg 91.0 -93,2334BJ,LEIDEN,Zuid-Holland,Closed,Regular Secondary School,2.6,2000s,2000s,2007-01-01 to 2009-07-31,2007-01-01,2009-07-31,52.1720891,4.477749800000001
29TC,U,VOS,De Amsterdamse School VO,Nieuwezijds Voorburgwal 68.0 ,1012SE,AMSTERDAM,Noord-Holland,Closed,Regular Secondary School,6.9,2000s,2010s,2007-01-01 to 2013-12-01,2007-01-01,2013-12-01,52.3762641,4.893143999999999
29RY,U,VOS,Iederwijs Deventer (De Paradox) VO,Ganzensteeg 7.0 ,7251LC,VORDEN,Gelderland,Closed,Regular Secondary School,8.6,2000s,2010s,2007-01-01 to 2015-08-01,2007-01-01,2015-08-01,52.1046498,6.3722344
29RY,U,VOS,Iederwijs De Paradox,Nijverheidsweg 2.0 ,7251JV,VORDEN,Gelderland,Closed,Regular Secondary School,8.6,2000s,2010s,2007-01-01 to 2015-08-01,2007-01-01,2015-08-01,50.8419064,5.720971
29RY,U,VOS,School De Paradox,Enkweg 17.0 A,7251EV,VORDEN,Gelderland,Closed,Regular Secondary School,8.6,2000s,2010s,2007-01-01 to 2015-08-01,2007-01-01,2015-08-01,52.1057186,6.3227198
29RW,U,VOS,De Nieuwe School Amsterdam VO,Herengracht 274.0 ,1016BW,AMSTERDAM,Noord-Holland,Active,Regular Secondary School,18.1,2000s,,2007-01-01 to Present,2007-01-01,,52.3710079,4.886559699999999
29TV,U,VOS,De Ruimte Soest (VO),Insingerstraat 39.0 -53,3766MA,SOEST,Utrecht,Active,Regular Secondary School,18.1,2000s,,2007-01-01 to Present,2007-01-01,,52.1614377,5.2768689
29TV,U,VOS,De Ruimte,Insingerstraat 39.0 ,3766MA,SOEST,Utrecht,Active,Regular Secondary School,18.1,2000s,,2007-01-01 to Present,2007-01-01,,52.1614377,5.2768689
02NZ04,D,VSTZ,Ludgercollege Katholieke Scholengemeenschap voor Lyceum Havo Mavo,Houtsmastraat 11.0 B,7002KA,DOETINCHEM,Gelderland,Closed,Secondary Branch Location,2.0,2000s,2000s,2006-08-01 to 2008-08-01,2006-08-01,2008-08-01,51.9729328,6.314404
28DB,U,VOS,Orion College,Biesdonkweg 33.0 ,4826KS,BREDA,Noord-Brabant,Closed,Regular Secondary School,10.0,2000s,2010s,2006-08-01 to 2016-08-01,2006-08-01,2016-08-01,51.6028666,4.7847795
28DB,U,VOS,Orion Lyceum voor vwo en havo,Waterloostraat 27.0 ,4826LW,BREDA,Noord-Brabant,Closed,Regular Secondary School,10.0,2000s,2010s,2006-08-01 to 2016-08-01,2006-08-01,2016-08-01,51.6064642,4.779768499999999
28CA,U,PROS,Nog niet bekend,Wiekslag 50.0 ,3815GS,AMERSFOORT,Utrecht,Active,Practical Education,18.5,2000s,,2006-08-01 to Present,2006-08-01,,52.1618583,5.4097858
28DF,U,PROS,Accent praktijkonderwijs Hoogvliet,Max Havelaarweg 53.0 ,3193VA,HOOGVLIET ROTTERDAM,Zuid-Holland,Active,Practical Education,18.5,2000s,,2006-08-01 to Present,2006-08-01,,51.8675846,4.3464522
28DH,U,VOS,Yburg College,Franz Zieglerstraat 201.0 ,1087HN,AMSTERDAM,Noord-Holland,Active,Regular Secondary School,18.5,2000s,,2006-08-01 to Present,2006-08-01,,52.3529124,5.0076035
28DH,U,VOS,IJburg College voor Vwo Havo Mavo en Vbo,Pampuslaan 1.0 ,1087HP,AMSTERDAM,Noord-Holland,Active,Regular Secondary School,18.5,2000s,,2006-08-01 to Present,2006-08-01,,52.3512531,5.0041575
28AC,U,VOS,Evangelische School voor VWO HAVO MAVO De Passie,Contactweg 150.0 ,1014BW,AMSTERDAM,Noord-Holland,Closed,Regular Secondary School,9.0,2000s,2010s,2005-08-01 to 2014-08-01,2005-08-01,2014-08-01,52.3985505,4.8538573
28AC,U,VOS,Evangelische School voor VWO HAVO MAVO De Passie,Zekeringstraat 38.0 -40,1014BT,AMSTERDAM,Noord-Holland,Closed,Regular Secondary School,9.0,2000s,2010s,2005-08-01 to 2014-08-01,2005-08-01,2014-08-01,52.396849,4.8502594
27ZF,U,VOS,Pleincollege Bisschop Bekkers voor Lyceum en Havo,Avignonlaan 1.0 ,5627GA,EINDHOVEN,Noord-Brabant,Closed,Regular Secondary School,11.0,2000s,2010s,2005-08-01 to 2016-08-01,2005-08-01,2016-08-01,51.4777768,5.446712199999999
27ZH,U,VOS,Sint-Maartenscollege,Bemelerweg 1.0 ,6226NE,MAASTRICHT,Limburg,Active,Regular Secondary School,19.5,2000s,,2005-08-01 to Present,2005-08-01,,50.8479703,5.728991100000001
27ZJ,U,VOS,Bonnefantencollege,Tongerseweg 135.0 ,6213GB,MAASTRICHT,Limburg,Active,Regular Secondary School,19.5,2000s,,2005-08-01 to Present,2005-08-01,,50.84186709999999,5.6711652
27ZJ,U,VOS,Bonnefantencollege,Eenhoornsingel 100.0 ,6216CW,MAASTRICHT,Limburg,Active,Regular Secondary School,19.5,2000s,,2005-08-01 to Present,2005-08-01,,50.8489843,5.663141299999999
28BN,U,PROS,Tender College Heemskerk voor Praktijkonderwijs,De Velst 6.0 ,1963KL,HEEMSKERK,Noord-Holland,Active,Practical Education,19.5,2000s,,2005-08-01 to Present,2005-08-01,,52.51364359999999,4.6863771
28BN,U,PROS,Tender College Heemskerk voor Praktijkonderwijs,Jan van Kuikweg 12.0 ,1965BB,HEEMSKERK,Noord-Holland,Active,Practical Education,19.5,2000s,,2005-08-01 to Present,2005-08-01,,52.5014637,4.6671952
28BU,U,PROS,Onbekend,Klipgriend 3.0 ,1356GA,ALMERE,Flevoland,Active,Practical Education,19.5,2000s,,2005-08-01 to Present,2005-08-01,,52.3392265,5.237767799999999
28BU,U,PROS,Praktijkonderwijs Almere-Marathonlaan,Marathonlaan 7.0 ,1318ED,ALMERE,Flevoland,Active,Practical Education,19.5,2000s,,2005-08-01 to Present,2005-08-01,,52.3889029,5.251704
28BU,U,PROS,Praktijkonderwijs Almere-Marathonlaan,Tom Poesstraat 2.0 ,1336AE,ALMERE,Flevoland,Active,Practical Education,19.5,2000s,,2005-08-01 to Present,2005-08-01,,52.4021301,5.310435900000001
02VJ06,D,VSTS,PC en RK SGM Ubbo Emmius SGM v Lyc Havo Mavo Vbo,Boslaan 32.0 ,9591BK,ONSTWEDDE,Groningen,Active,Secondary Technical School,20.5,2000s,,2004-08-01 to Present,2004-08-01,,53.0354193,7.039719
02VJ06,D,VSTS,Stichting bijzonder voortgezet onderwijs Ubbo Emmius voor Lyc Havo Mavo Vbo,Boslaan 18.0 ,9591BJ,ONSTWEDDE,Groningen,Active,Secondary Technical School,20.5,2000s,,2004-08-01 to Present,2004-08-01,,53.03464899999999,7.0401653
25DA09,D,VSTS,Atlas College voor Lyceum Havo Mavo Vbo Lwoo Locatie De Triade,Oosthuizerweg 10.0 ,1135GH,EDAM,Noord-Holland,Active,Secondary Technical School,20.5,2000s,,2004-08-01 to Present,2004-08-01,,52.5135942,5.0444672
25DA09,D,VSTS,Atlas College voor Lyceum Havo Mavo Vbo Lwoo Locatie De Triade,Nijverheidstraat 2.0 ,1135GE,EDAM,Noord-Holland,Active,Secondary Technical School,20.5,2000s,,2004-08-01 to Present,2004-08-01,,52.513496,5.043809599999999
27VD,U,VOS,Groenhorst College Almere Afdeling VMBO-groen,Kerkstraat 98.0 ,1354AC,ALMERE,Flevoland,Active,Regular Secondary School,20.5,2000s,,2004-08-01 to Present,2004-08-01,,52.3353607,5.221778899999999
27VD,U,VOS,Groenhorst College Almere Afdeling VMBO-groen,Heliumweg 1.0 ,1362JA,ALMERE,Flevoland,Active,Regular Secondary School,20.5,2000s,,2004-08-01 to Present,2004-08-01,,52.3476472,5.1664794
27VF,U,PROS,Hans Petri School,Willem de Zwijgerlaan 49.0 ,3314NX,DORDRECHT,Zuid-Holland,Active,Practical Education,20.5,2000s,,2004-08-01 to Present,2004-08-01,,51.7979506,4.6678621
27VF,U,PROS,Hans Petri School,Anna van Saksenstraat 11.0 ,3314NC,DORDRECHT,Zuid-Holland,Active,Practical Education,20.5,2000s,,2004-08-01 to Present,2004-08-01,,51.7984498,4.667953
27VG,U,VOS,Porta Mosana College,Oude Molenweg 130.0 ,6228XW,MAASTRICHT,Limburg,Active,Regular Secondary School,20.5,2000s,,2004-08-01 to Present,2004-08-01,,50.8342398,5.7330005
27VH,U,PROS,Praktijkschool De Dreef,Dubbelink 3.0 ,1102AL,AMSTERDAM,Noord-Holland,Active,Practical Education,20.5,2000s,,2004-08-01 to Present,2004-08-01,,52.3227139,4.9505408
27VH,U,PROS,Praktijkschool De Dreef,Alexander Dumaslaan 7.0 ,1102WD,AMSTERDAM,Noord-Holland,Active,Practical Education,20.5,2000s,,2004-08-01 to Present,2004-08-01,,52.3237804,4.9411947
27ZB,U,VOS,"Instituut Blankestijn, particuliere scholengemeenschap mavo-havo-vwo",Oudegracht 189.0 ,3511NE,UTRECHT,Utrecht,Active,Regular Secondary School,20.5,2000s,,2004-08-01 to Present,2004-08-01,,52.08865729999999,5.1209832
02FY05,D,VSTS,Mollerlyceum Rooms Katholiek Scholengemeenschap voor Lyceum Havo Mavo Vbo Lwoo,Edward Jennerstraat 6.0 ,4631LA,HOOGERHEIDE,Noord-Brabant,Closed,Secondary Technical School,9.2,2000s,2010s,2003-08-01 to 2012-10-23,2003-08-01,2012-10-23,51.4280299,4.3247336
03WO03,D,VSTS,Van Lodensteincollege Scholengemeenschap voor Lyceum Havo Mavo Vbo Lwoo,Europaweg 4.0 ,2711AH,ZOETERMEER,Zuid-Holland,Active,Secondary Technical School,21.5,2000s,,2003-08-01 to Present,2003-08-01,,52.0631671,4.4882593
03WO03,D,VSTS,Van Lodensteincollege Scholengemeenschap voor Lyceum Havo Mavo Vbo Lwoo,Oldenbarnevelderweg 80.0 ,3772GH,BARNEVELD,Gelderland,Active,Secondary Technical School,21.5,2000s,,2003-08-01 to Present,2003-08-01,,52.1360858,5.5677634
03WO03,D,VSTS,Van Lodensteincollege Scholengemeenschap voor Lyceum Havo Mavo Vbo Lwoo,Lunterseweg 94.0 ,3772TS,BARNEVELD,Gelderland,Active,Secondary Technical School,21.5,2000s,,2003-08-01 to Present,2003-08-01,,52.1243674,5.5878703
17CK01,D,VSTS,Regionale Scholengemeenschap 't Slingerbos voor Ath Havo Mavo,Horsterweg 192.0 ,3891EV,ZEEWOLDE,Flevoland,Active,Secondary Technical School,21.5,2000s,,2003-08-01 to Present,2003-08-01,,52.3276202,5.5301255
19XH08,D,VSTZ,Hooghuis Lyceum,Kapelaan Nausstraat 2.0 ,5348TH,OSS,Noord-Brabant,Active,Secondary Branch Location,21.5,2000s,,2003-08-01 to Present,2003-08-01,,51.771794,5.542504999999999
19XH08,D,VSTZ,Het Hooghuis locatie De Singel,Euterpehof 20.0 ,5342CW,OSS,Noord-Brabant,Active,Secondary Branch Location,21.5,2000s,,2003-08-01 to Present,2003-08-01,,51.7606017,5.5174601
27RW,U,VOS,De Passie Evangelische School voor Vmbo-T Havo Vwo,Rosestraat 1025.0 ,3071AL,ROTTERDAM,Zuid-Holland,Active,Regular Secondary School,21.5,2000s,,2003-08-01 to Present,2003-08-01,,51.9051473,4.5079726
27RW,U,VOS,"de Passie Evangelische School voor Vmbo-tl, Havo, Atheneum, Gymnasium",Ulaanbaatarplein 6.0 ,3072JP,ROTTERDAM,Zuid-Holland,Active,Regular Secondary School,21.5,2000s,,2003-08-01 to Present,2003-08-01,,51.9244201,4.4777325
02LB09,D,VSTZ,Openbare Scholengemeenschap Nieuw Zuid voor Lyceum Havo Mavo Vbo Lwoo,Oosterhagen 251.0 ,3078CL,ROTTERDAM,Zuid-Holland,Closed,Secondary Branch Location,1.0,2000s,2000s,2002-08-01 to 2003-08-01,2002-08-01,2003-08-01,51.8876506,4.559828899999999
14SF05,D,VSTZ,Christelijke Scholengemeenschap De Goudse Waarden Lyc Havo Mavo Vbo Lwoo Pro,Elizabeth Wolffstraat 1.0 ,2806PJ,GOUDA,Zuid-Holland,Closed,Secondary Branch Location,1.0,2000s,2000s,2002-08-01 to 2003-08-01,2002-08-01,2003-08-01,52.015955,4.715662399999999
12RB02,D,VSTZ,Gemeentelijke Scholengemeenschap Helinium voor Atheneum Havo Mavo Vbo Lwoo,Jacq Perkstraat 2.0 -4,3221TM,HELLEVOETSLUIS,Zuid-Holland,Closed,Secondary Branch Location,1.4,2000s,2000s,2002-08-01 to 2004-01-01,2002-08-01,2004-01-01,51.832639,4.138112
01VJ07,D,VSTZ,Etty Hillesum Lyceum voor Lyceum Atheneum Havo Mavo Vbo Lwoo Pro,Prinses Beatrixstraat 5.0 -7,7415HM,DEVENTER,Overijssel,Closed,Secondary Branch Location,2.0,2000s,2000s,2002-08-01 to 2004-08-01,2002-08-01,2004-08-01,52.2702714,6.170424
17WQ10,D,VSTZ,Christelijke Scholengemeenschap Aquamarijn voor Lyc Havo Mavo Vbo Lwoo,Ambonlaan 101.0 ,3131ZA,VLAARDINGEN,Zuid-Holland,Closed,Secondary Branch Location,2.0,2000s,2000s,2002-08-01 to 2004-08-01,2002-08-01,2004-08-01,51.9125859,4.3318599
18CR06,D,VSTZ,PC/RK Scholengemeenschap De Grundel voor Lyceum Havo Mavo Vbo Lwoo,Sweelinckstraat 25.0 ,7557SK,HENGELO OV,Overijssel,Closed,Secondary Branch Location,2.0,2000s,2000s,2002-08-01 to 2004-08-01,2002-08-01,2004-08-01,52.2696655,6.8121508
00PG05,D,VSTZ,Wartburg College Gereformeerde Scholengemeenschap voor Lyceum Havo Mavo Vbo Lwoo,Dorpsstraat-oost 3.0 A,2991CR,BARENDRECHT,Zuid-Holland,Closed,Secondary Branch Location,3.0,2000s,2000s,2002-08-01 to 2005-08-01,2002-08-01,2005-08-01,51.8505027,4.5451538
02VG07,D,VSTZ,Rotterdamse Scholengemeenschap voor Lyceum Havo Mavo Vbo Lwoo,Van Alkemadestraat 5.0 ,3031PA,ROTTERDAM,Zuid-Holland,Closed,Secondary Branch Location,3.0,2000s,2000s,2002-08-01 to 2005-08-01,2002-08-01,2005-08-01,51.9263134,4.4875013
04YE07,D,VSTZ,Openbare Scholengemeenschap Singelland voor Lyceum Havo Mavo Vbo Lwoo,De Stoeken 1.0 ,9202LS,DRACHTEN,Friesland,Closed,Secondary Branch Location,3.0,2000s,2000s,2002-08-01 to 2005-08-01,2002-08-01,2005-08-01,53.1038809,6.1206388
06WY02,D,VSTZ,De Grienden Scholengemeenschap voor Mavo Vbo Lwoo,Van Der Palmpad 2.0 ,3351GZ,PAPENDRECHT,Zuid-Holland,Closed,Secondary Branch Location,3.0,2000s,2000s,2002-08-01 to 2005-08-01,2002-08-01,2005-08-01,51.8329259,4.6815146
20BC02,D,VSTZ,Oranje Nassau College Scholengemeenschap Ath Havo Mavo Vbo Lwoo,Schansbos 3.0 -4,2716GV,ZOETERMEER,Zuid-Holland,Closed,Secondary Branch Location,3.0,2000s,2000s,2002-08-01 to 2005-08-01,2002-08-01,2005-08-01,52.0582288,4.4669262
14SM08,D,VSTZ,Gooise Scholenfederatie voor Lyceum Havo Mavo Vbo Lwoo Pro,Laapersveld 25.0 A,1213VB,HILVERSUM,Noord-Holland,Closed,Secondary Branch Location,4.0,2000s,2000s,2002-08-01 to 2006-08-01,2002-08-01,2006-08-01,52.2124683,5.1856526
20EY05,D,VSTZ,Bertrand Russell College voor Atheneum Havo Mavo Vbo Lwoo,Noorderstraat 3.0 ,1521KA,WORMERVEER,Noord-Holland,Closed,Secondary Branch Location,4.0,2000s,2000s,2002-08-01 to 2006-08-01,2002-08-01,2006-08-01,52.4964401,4.787664400000001
02VQ06,D,VSTZ,Pascal College Christelijk Voortgezet Onderwijs voor Lyceum Havo Mavo Vbo Lwoo,Rooswijkplein 10.0 ,1544VZ,ZAANDIJK,Noord-Holland,Closed,Secondary Branch Location,5.0,2000s,2000s,2002-08-01 to 2007-08-01,2002-08-01,2007-08-01,52.4749111,4.7974017
15BS04,D,VSTZ,Sondervick College RK Scholengemeenschap voor Lyceum Havo Mavo Vbo Lwoo,Christinastraat 2.0 A,5615RK,EINDHOVEN,Noord-Brabant,Closed,Secondary Branch Location,5.0,2000s,2000s,2002-08-01 to 2007-08-01,2002-08-01,2007-08-01,51.4289782,5.462487599999999
19HR04,D,VSTZ,Blariacumcollege Scholengemeenschap voor Lyceum Havo Mavo Vbo Lwoo,Hendrik Consciencestraat 46.0 ,5921AS,VENLO,Limburg,Closed,Secondary Branch Location,5.0,2000s,2000s,2002-08-01 to 2007-08-01,2002-08-01,2007-08-01,51.3680961,6.140129
18AN01,D,VSTZ,Delta College Protestants Christelijke Scholengemeenschap voor Mavo Vbo en Lwoo,Ramsesdreef 190.0 ,3564CL,UTRECHT,Utrecht,Closed,Secondary Branch Location,6.0,2000s,2000s,2002-08-01 to 2008-08-01,2002-08-01,2008-08-01,52.1239822,5.1127087
20DH01,D,VSTZ,Stedelijk Daltoncollege voor Lyceym Havo Mavo Vbo Lwoo,Paulus Potterstraat 8.0 ,7204CV,ZUTPHEN,Gelderland,Closed,Secondary Branch Location,6.0,2000s,2000s,2002-08-01 to 2008-08-01,2002-08-01,2008-08-01,52.1385023,6.2092278
01KO02,D,VSTZ,Interconfessioneel Makeblijde College Lyceum Havo Mavo Vbo Lwoo,Generaal Vetterstraat 40.0 ,2283LK,RIJSWIJK ZH,Zuid-Holland,Closed,Secondary Branch Location,7.0,2000s,2000s,2002-08-01 to 2009-08-01,2002-08-01,2009-08-01,52.0420403,4.3258804
15BH06,D,VSTZ,Chr Scholengemeenschap Groene Hart Lyceum voor Lyceum Havo Mavo Vbo Pro Lwoo,Jongkindt Coninckstraat 36.0 ,2406AP,ALPHEN AAN DEN RIJN,Zuid-Holland,Closed,Secondary Branch Location,7.0,2000s,2000s,2002-08-01 to 2009-08-01,2002-08-01,2009-08-01,52.1260458,4.6664742
17IR05,D,VSTZ,Pax Christi College RK SGM voor Lyc Havo Mavo Vbo Lwoo,Heemradenstraat 42.0 ,6651DP,DRUTEN,Gelderland,Closed,Secondary Branch Location,8.0,2000s,2010s,2002-08-01 to 2010-08-01,2002-08-01,2010-08-01,51.886879,5.6014799
15HX05,D,VSTZ,Openbare Scholengemeenschap Thorbecke VO voor Atheneum Havo Mavo Vbo Lwoo,De Waghemakerestraat 11.0 ,3067HT,ROTTERDAM,Zuid-Holland,Closed,Secondary Branch Location,10.0,2000s,2010s,2002-08-01 to 2012-08-01,2002-08-01,2012-08-01,51.9417321,4.5430864
16JO03,D,VSTZ,Stedelijke Scholengemeenschap De Rede voor Lyc Havo Mavo Vbo Lwoo,Evertsenlaan 84.0 ,4535AD,TERNEUZEN,Zeeland,Closed,Secondary Branch Location,11.0,2000s,2010s,2002-08-01 to 2013-08-01,2002-08-01,2013-08-01,51.3235178,3.8521142
25FU07,D,VSTZ,Linnaeus College Haarlem voor Lyceum Havo Mavo Vbo Lwoo,Junoplantsoen 58.0 ,2024RS,HAARLEM,Noord-Holland,Closed,Secondary Branch Location,11.0,2000s,2010s,2002-08-01 to 2013-08-01,2002-08-01,2013-08-01,52.4042039,4.635930999999999
18TR06,D,VSTZ,Openbare Scholengemeenschap Oost-IJsselmonde voor Lyceum Atheneum Havo Mavo Vbo,Prof. Mekelstraat 2.0 ,3333BP,ZWIJNDRECHT,Zuid-Holland,Closed,Secondary Branch Location,12.0,2000s,2010s,2002-08-01 to 2014-08-01,2002-08-01,2014-08-01,51.8073164,4.6279013
13OR04,D,VSTZ,Pontes Scholengroep voor Lyceum Atheneum Havo Mavo Vbo Pro en Lwoo,Jannewekken 19.0 b,4301HH,ZIERIKZEE,Zeeland,Closed,Secondary Branch Location,13.0,2000s,2010s,2002-08-01 to 2015-08-01,2002-08-01,2015-08-01,51.6527,3.9223551
18CR05,D,VSTZ,PC/RK Scholengemeenschap De Grundel voor Lyceum Havo Mavo Vbo Lwoo,Onze Lieve Vrouwestraat 10.0 ,7557HX,HENGELO OV,Overijssel,Closed,Secondary Branch Location,14.0,2000s,2010s,2002-08-01 to 2016-08-01,2002-08-01,2016-08-01,52.2717986,6.804837099999999
18CR05,D,VSTZ,PC/RK Scholengemeenschap De Grundel voor Lyceum Havo Mavo Vbo Lwoo,Sportlaan Driene 6.0 I,7552HA,HENGELO OV,Overijssel,Closed,Secondary Branch Location,14.0,2000s,2010s,2002-08-01 to 2016-08-01,2002-08-01,2016-08-01,52.2640659,6.8180529
02IB03,D,VSTZ,DaCapo College Locatie Rijksweg Zuid voor Mavo Vbo Lwoo,Wagenaarstraat 157.0 ,6164XR,GELEEN,Limburg,Closed,Secondary Branch Location,15.0,2000s,2010s,2002-08-01 to 2017-08-01,2002-08-01,2017-08-01,50.9563363,5.8249928
17KF02,D,VSTZ,Hervion College voor Mavo Vbo Lwoo,Jacob van Maerlantstraat 4.0 ,5216JL,'S-HERTOGENBOSCH,Noord-Brabant,Closed,Secondary Branch Location,18.0,2000s,2020s,2002-08-01 to 2020-08-01,2002-08-01,2020-08-01,51.6861018,5.319568299999999
23YU04,D,VSTS,Nova College,Lisstraat 13.0 ,3202JG,SPIJKENISSE,Zuid-Holland,Closed,Secondary Technical School,18.0,2000s,2020s,2002-08-01 to 2020-08-01,2002-08-01,2020-08-01,51.8564217,4.3194935
19XH07,D,VSTZ,Hooghuis Lyceum voor Lyceum Havo Mavo Vbo Lwoo,Staringstraat 4.0 ,5343GH,OSS,Noord-Brabant,Closed,Secondary Branch Location,19.0,2000s,2020s,2002-08-01 to 2021-08-01,2002-08-01,2021-08-01,51.7497336,5.5150768
20IS06,D,VSTZ,Stella Maris College voor Lyc Havo Mavo Vbo Lwoo,Anjelierenstraat 40.0 ,6214SW,MAASTRICHT,Limburg,Closed,Secondary Branch Location,19.0,2000s,2020s,2002-08-01 to 2021-08-01,2002-08-01,2021-08-01,50.8441635,5.672865
20IS06,D,VSTZ,Stella Maris College voor Lyc Havo Mavo Vbo Lwoo,Hunnenweg 4.0 ,6224JP,MAASTRICHT,Limburg,Closed,Secondary Branch Location,19.0,2000s,2020s,2002-08-01 to 2021-08-01,2002-08-01,2021-08-01,50.8477468,5.7132244
16PK08,D,VSTZ,Christelijke Scholengemeenschap Johannes Calvijn voor Lyceum Havo Mavo Vbo Lwoo,Kreeftstraat 44.0 ,3067JV,ROTTERDAM,Zuid-Holland,Closed,Secondary Branch Location,20.0,2000s,2020s,2002-08-01 to 2022-08-01,2002-08-01,2022-08-01,51.9465344,4.5547572
00OB03,D,VSTZ,Maaswaal College voor Atheneum Havo Mavo Vbo Lwoo,Oosterweg 12.0 ,6602HD,WIJCHEN,Gelderland,Active,Secondary Branch Location,22.5,2000s,,2002-08-01 to Present,2002-08-01,,51.8053699,5.7281154
01EO06,D,VSTZ,Purmerendse Scholengemeenschap voor Gymn Lyc Havo Mavo Vbo Lwoo,Koggenland 100.0 ,1447CP,PURMEREND,Noord-Holland,Active,Secondary Branch Location,22.5,2000s,,2002-08-01 to Present,2002-08-01,,52.4947628,4.9653018
01EO06,D,VSTZ,Purmerendse Scholengemeenschap voor Gymn Lyc Havo Mavo Vbo Lwoo,Flevostraat 257.0 ,1442PX,PURMEREND,Noord-Holland,Active,Secondary Branch Location,22.5,2000s,,2002-08-01 to Present,2002-08-01,,52.5193009,4.9809402
01KL14,D,VSTZ,Noordzee College voor Lyceum Havo Mavo Vbo Lwoo,Eenhoornstraat 8.0 ,1973XT,IJMUIDEN,Noord-Holland,Active,Secondary Branch Location,22.5,2000s,,2002-08-01 to Present,2002-08-01,,52.4528224,4.6018138
02HI06,D,VSTZ,Openbare Scholengemeenschap Schelde College voor Mavo Vbo Lwoo,Pomonalaan 45.0 ,4613ES,BERGEN OP ZOOM,Noord-Brabant,Active,Secondary Branch Location,22.5,2000s,,2002-08-01 to Present,2002-08-01,,51.5070513,4.2846398
02ST05,D,VSTZ,Rooms Katholieke Scholengemeenschap Kandinsky College voor Lyc Havo Mavo Vbo L,Prins Hendrikstraat 7.0 ,6521AV,NIJMEGEN,Gelderland,Active,Secondary Branch Location,22.5,2000s,,2002-08-01 to Present,2002-08-01,,51.8424181,5.869871799999999
04GU06,D,VSTZ,Elde College Schijndel voor Atheneum Havo Mavo Vbo Lwoo,Bunderstraat 8.0 ,5481KD,SCHIJNDEL,Noord-Brabant,Active,Secondary Branch Location,22.5,2000s,,2002-08-01 to Present,2002-08-01,,51.6169109,5.429088399999999
04GU06,D,VSTZ,Elde College Schijndel voor Atheneum Havo Mavo Vbo Lwoo,Putsteeg 2.0 A,5481XT,SCHIJNDEL,Noord-Brabant,Active,Secondary Branch Location,22.5,2000s,,2002-08-01 to Present,2002-08-01,,51.6164749,5.4286371
07PK06,D,VSTZ,Arentheem College Interconfessionele School voor Lyceum Havo Mavo Vbo Lwoo,Ds. Bechtlaan 1.0 ,6823CA,ARNHEM,Gelderland,Active,Secondary Branch Location,22.5,2000s,,2002-08-01 to Present,2002-08-01,,52.00114379999999,5.935784399999999
07PK06,D,VSTZ,Arentheem College Interconfessionele School voor Lyceum Havo Mavo Vbo Lwoo,Laan van Presikhaaf 9.0 ,6826HB,ARNHEM,Gelderland,Active,Secondary Branch Location,22.5,2000s,,2002-08-01 to Present,2002-08-01,,51.9862458,5.9429399
07PK06,D,VSTZ,Arentheem College Interconfessionele School voor Lyceum Havo Mavo Vbo Lwoo,Laan van Presikhaaf 7.0 ,6826HA,ARNHEM,Gelderland,Active,Secondary Branch Location,22.5,2000s,,2002-08-01 to Present,2002-08-01,,51.9808175,5.9488185
13ZU03,D,VSTZ,Reitdiepcollege voor Atheneum Havo Mavo Vbo Lwoo,Heesterpoort 1.0 ,9713KX,GRONINGEN,Groningen,Active,Secondary Branch Location,22.5,2000s,,2002-08-01 to Present,2002-08-01,,53.22319,6.5836537
13ZU03,D,VSTZ,Reitdiepcollege voor Atheneum Havo Mavo Vbo Lwoo,Travertijnstraat 2.0 ,9743SZ,GRONINGEN,Groningen,Active,Secondary Branch Location,22.5,2000s,,2002-08-01 to Present,2002-08-01,,53.2186602,6.528406899999999
14RL03,D,VSTZ,College Beroepsonderwijs Zeeburg voor Vbo Lwoo,Rietwijkerstraat 55.0 ,1059VX,AMSTERDAM,Noord-Holland,Active,Secondary Branch Location,22.5,2000s,,2002-08-01 to Present,2002-08-01,,52.3494181,4.8471331
16VM04,D,VSTZ,Herle College Scholengemeenschap voor Mavo Vbo Lwoo,Bekkerveld 4.0 ,6417CL,HEERLEN,Limburg,Active,Secondary Branch Location,22.5,2000s,,2002-08-01 to Present,2002-08-01,,50.8786839,5.983198799999999
17HB07,D,VSTZ,Scholengemeenschap Nieuw West voor Lyceum Havo Mavo Vbo Lwoo,Johan Braakensiekhof 31.0 ,1068KK,AMSTERDAM,Noord-Holland,Active,Secondary Branch Location,22.5,2000s,,2002-08-01 to Present,2002-08-01,,52.3523035,4.8146597
17HB07,D,VSTZ,Scholengemeenschap Nieuw-West voor Lyceum Havo Mavo Vbo Lwoo,Dr Jan van Breemenstraat 1.0 ,1056AB,AMSTERDAM,Noord-Holland,Active,Secondary Branch Location,22.5,2000s,,2002-08-01 to Present,2002-08-01,,52.37085099999999,4.843855599999999
17VF06,D,VSTZ,Bernard Nieuwentijt College Chr SGM voor Lyceum Havo Mavo Vbo Lwoo,Schoenerstraat 7.0 A,1034XZ,AMSTERDAM,Noord-Holland,Active,Secondary Branch Location,22.5,2000s,,2002-08-01 to Present,2002-08-01,,52.4038292,4.909229
17VF06,D,VSTZ,Scholengemeenschap Zaam Noord Vwo  Havo Mavo Vbo Lwoo,Duinluststraat 20.0 ,1024VK,AMSTERDAM,Noord-Holland,Active,Secondary Branch Location,22.5,2000s,,2002-08-01 to Present,2002-08-01,,52.3957711,4.9535138
17VN07,D,VSTZ,Bonhoeffer College voor Lyceum Havo Mavo Vmbo Lwoo,Lijsterstraat 117.0 ,7523ES,ENSCHEDE,Overijssel,Active,Secondary Branch Location,22.5,2000s,,2002-08-01 to Present,2002-08-01,,52.2379165,6.8988434
17YS12,D,VSTZ,Esprit Scholengroep voor Luceum Havo Mavo Vbo Lwoo,Cabralstraat 1.0 ,1057CD,AMSTERDAM,Noord-Holland,Active,Secondary Branch Location,22.5,2000s,,2002-08-01 to Present,2002-08-01,,52.3697165,4.854964799999999
17YS12,D,VSTZ,Esprit Scholengroep voor Luceum Havo Mavo Vbo Lwoo,Herman Poortstraat 17.0 ,1064BR,AMSTERDAM,Noord-Holland,Active,Secondary Branch Location,22.5,2000s,,2002-08-01 to Present,2002-08-01,,52.3765072,4.8310662
17YS12,D,VSTZ,Esprit Scholengroep voor Luceum Havo Mavo Vbo Lwoo,Burg Hogguerstraat 2.0 A,1064EB,AMSTERDAM,Noord-Holland,Active,Secondary Branch Location,22.5,2000s,,2002-08-01 to Present,2002-08-01,,52.3732477,4.830897
18WS02,D,VSTZ,Anna van Ryn College Openbare Scholengemeenschap voor Ath Havo Mavo Vbo Lwoo,Acaciastraat 37.0 ,3434BV,NIEUWEGEIN,Utrecht,Active,Secondary Branch Location,22.5,2000s,,2002-08-01 to Present,2002-08-01,,52.0108166,5.0910386
19XV02,D,VSTZ,Prisma College voor Ath Havo Mavo Vbo Lwoo,Groene Woud 2.0 ,4834BC,BREDA,Noord-Brabant,Active,Secondary Branch Location,22.5,2000s,,2002-08-01 to Present,2002-08-01,,51.5725206,4.7924491
19ZP03,D,VSTZ,Scholengemeenschap Westhage voor Mavo Vmbo Lwoo,Landrestraat 150.0 ,2551CA,'S-GRAVENHAGE,Zuid-Holland,Active,Secondary Branch Location,22.5,2000s,,2002-08-01 to Present,2002-08-01,,52.0598721,4.2278695
20AT04,D,VSTZ,Sint Joris College Scholengemeenschap voor Lyc Havo Mavo Vbo Lwoo,Hendrik Staetslaan 54.0 ,5622HN,EINDHOVEN,Noord-Brabant,Active,Secondary Branch Location,22.5,2000s,,2002-08-01 to Present,2002-08-01,,51.46339219999999,5.4654533
20CM10,D,VSTZ,Scholengemeenschap Dollard College voor Lyc Havo Mavo Vbo Lwoo,Bovenburen 11.0 ,9675HA,WINSCHOTEN,Groningen,Active,Secondary Branch Location,22.5,2000s,,2002-08-01 to Present,2002-08-01,,53.1511596,7.024115
20EI02,D,VSTZ,Vallei College voor Ath Havo Mavo Vbo Lwoo,Columbusweg 40.0 ,3814WE,AMERSFOORT,Utrecht,Active,Secondary Branch Location,22.5,2000s,,2002-08-01 to Present,2002-08-01,,52.1604441,5.4037947
20GD01,D,VSTZ,Midden-Brabant College Economie/Groen voor Mavo Vbo Lwoo,Reitse Hoevenstraat 20.0 ,5042EH,TILBURG,Noord-Brabant,Active,Secondary Branch Location,22.5,2000s,,2002-08-01 to Present,2002-08-01,,51.5723467,5.0622577
20GD01,D,VSTZ,Midden-Brabant College Locatie Economie en Groen/Frater van Gemert Lwoo,Schout Backstraat 37.0 ,5037MJ,TILBURG,Noord-Brabant,Active,Secondary Branch Location,22.5,2000s,,2002-08-01 to Present,2002-08-01,,51.5537263,5.0551058
20TZ07,D,VSTZ,Openbare Scholengemeenschap Lorentz College voor Lyceum Havo Mavo Vbo Lwoo,Groningensingel 1191.0 ,6835HZ,ARNHEM,Gelderland,Active,Secondary Branch Location,22.5,2000s,,2002-08-01 to Present,2002-08-01,,51.950681,5.8979233
21ET08,D,VSTZ,Scholengemeenschap Amsterdam-Zuid voor Atheneum Havo Mavo Vbo Lwoo,Oudaen 6.0 ,1081BZ,AMSTERDAM,Noord-Holland,Active,Secondary Branch Location,22.5,2000s,,2002-08-01 to Present,2002-08-01,,52.2178285,6.8564113
21GU08,D,VSTZ,Scholengroep Esloo PC RK Scholengemeenschap voor Lyceum Havo Mavo Vbo Lwoo,Isabellaland 253.0 ,2591SG,'S-GRAVENHAGE,Zuid-Holland,Active,Secondary Branch Location,22.5,2000s,,2002-08-01 to Present,2002-08-01,,52.0961417,4.3674307
21GU09,D,VSTZ,Scholengroep Esloo PC RK Scholengemeenschap voor Lyceum Havo Mavo Vbo Lwoo,Binckhorstlaan 251.0 ,2516BB,'S-GRAVENHAGE,Zuid-Holland,Active,Secondary Branch Location,22.5,2000s,,2002-08-01 to Present,2002-08-01,,52.06593520000001,4.339817099999999
21GU09,D,VSTZ,Scholengroep Esloo PC RK Scholengemeenschap voor Lyceum Havo Mavo Vbo Lwoo,Noordpolderkade 167.0 ,2516JE,'S-GRAVENHAGE,Zuid-Holland,Active,Secondary Branch Location,22.5,2000s,,2002-08-01 to Present,2002-08-01,,52.0618632,4.3343636
24TP03,D,VSTZ,Merewade College Openbare Scholengemeenschap voor Ath Havo Mavo Vbo Lwoo,Hoefslag 10.0 ,4205NK,GORINCHEM,Zuid-Holland,Active,Secondary Branch Location,22.5,2000s,,2002-08-01 to Present,2002-08-01,,51.8484369,4.9702056
24TP03,D,VSTZ,Merewade College Openbare Scholengemeenschap voor Ath Havo Mavo Vbo Lwoo,Merwedekanaal 8.0 ,4206BC,GORINCHEM,Zuid-Holland,Active,Secondary Branch Location,22.5,2000s,,2002-08-01 to Present,2002-08-01,,51.8371887,4.975887999999999
24TR04,D,VSTZ,Meerstroom College/Het Prisma voor Lyceum Havo Mavo Vbo Lwoo,Franz Schubertstraat 30.0 ,3533GW,UTRECHT,Utrecht,Active,Secondary Branch Location,22.5,2000s,,2002-08-01 to Present,2002-08-01,,52.0866313,5.086559299999999
24TR04,D,VSTZ,Meerstroom College/Het Prisma voor Lyceum Havo Mavo Vbo Lwoo,Notebomenlaan 400.0 ,3582CN,UTRECHT,Utrecht,Active,Secondary Branch Location,22.5,2000s,,2002-08-01 to Present,2002-08-01,,52.08339729999999,5.1355267
24TR04,D,VSTZ,Leidsche Rijn College voor GYM ATH HAVO MAVO VBO LWOO - loc. WSS,Wittevrouwenkade 2.0 ,3512CR,UTRECHT,Utrecht,Active,Secondary Branch Location,22.5,2000s,,2002-08-01 to Present,2002-08-01,,52.095472,5.125501000000001
24TR04,D,VSTZ,"NUOVO scholengroep, openbaar vmbo, mavo, havo, vwo - vst. de Utrechtse School",Van Lieflandlaan 117.0 ,3571AA,UTRECHT,Utrecht,Active,Secondary Branch Location,22.5,2000s,,2002-08-01 to Present,2002-08-01,,52.1081376,5.1205802
25CM10,D,VSTZ,Chr istelijke Scholengemeenschap Liudger voor Lyceum Havo Mavo Vbo Lwoo,De Ring 6.0 ,9202NW,DRACHTEN,Friesland,Active,Secondary Branch Location,22.5,2000s,,2002-08-01 to Present,2002-08-01,,52.3783039,4.8545416
25GC09,D,VSTZ,Scholengemeenschap Breda voor Katholiek Lyceum Havo Mavo Vbo Lwoo,Rijnesteinstraat 1.0 ,4834LB,BREDA,Noord-Brabant,Active,Secondary Branch Location,22.5,2000s,,2002-08-01 to Present,2002-08-01,,51.5698006,4.8055227
25GM02,D,VSTZ,dr Aletta Jacobs College voor Lyc Havo Mavo Vbo Lwoo,Van Heemskerckstraat 119.0 A,9601HC,HOOGEZAND,Groningen,Active,Secondary Branch Location,22.5,2000s,,2002-08-01 to Present,2002-08-01,,53.1653859,6.7621034
25GM02,D,VSTZ,dr Aletta Jacobs College voor Lyc Havo Mavo Vbo Lwoo,Laan van de Sport 6.0 ,9603TG,HOOGEZAND,Groningen,Active,Secondary Branch Location,22.5,2000s,,2002-08-01 to Present,2002-08-01,,53.1534041,6.7636542
27PM,U,PROS,Praktijkschool West-Friesland,Pastoor Meriusstraat 100.0 ,1715VE,SPANBROEK,Noord-Holland,Active,Practical Education,22.5,2000s,,2002-08-01 to Present,2002-08-01,,52.7022762,4.9489523
27PM,U,PROS,Praktijkschool West-Friesland locatie Spanbroek,Annie M.G. Schmidtweg 1.0 ,1613MA,GROOTEBROEK,Noord-Holland,Active,Practical Education,22.5,2000s,,2002-08-01 to Present,2002-08-01,,52.699412,5.216644
14SF04,D,VSTZ,Christelijke Scholengemeenschap De Goudse Waarden voor Lyc Havo Mavo Vbo Lwoo,Oosthoef 7.0 ,2804ST,GOUDA,Zuid-Holland,Closed,Secondary Branch Location,1.0,2000s,2000s,2001-08-01 to 2002-08-01,2001-08-01,2002-08-01,52.0347061,4.7058741
19ZP02,D,VSTZ,Scholengemeenschap Westhage voor Vmbo en Lwoo,Bresterstraat 7.0 ,2523XC,'S-GRAVENHAGE,Zuid-Holland,Closed,Secondary Branch Location,1.0,2000s,2000s,2001-08-01 to 2002-08-01,2001-08-01,2002-08-01,52.0595,4.3193126
18UZ01,D,VSTZ,School voor Praktijkonderwijs De Linde,Navolaan 30.0 ,9501VJ,STADSKANAAL,Groningen,Closed,Secondary Branch Location,3.0,2000s,2000s,2001-08-01 to 2004-08-01,2001-08-01,2004-08-01,52.9836748,6.960064
19QA03,D,VSTZ,Koningin Wilhelmina College voor Lyc Havo Mavo Vbo Lwoo Pro,Wilhelminadreef 18.0 ,4101KE,CULEMBORG,Gelderland,Closed,Secondary Branch Location,3.1,2000s,2000s,2001-08-01 to 2004-09-20,2001-08-01,2004-09-20,51.9607087,5.235167199999999
02MF03,D,VSTZ,Christelijke Scholengemeenschap voor Mavo Vbo Lwoo Pro,Pampagras 1.0 ,3902SP,VEENENDAAL,Utrecht,Closed,Secondary Branch Location,4.0,2000s,2000s,2001-08-01 to 2005-08-01,2001-08-01,2005-08-01,52.0320116,5.5637767
03JY04,D,VSTZ,Calvijn College voor Reformatorisch Vmbo Havo Vwo,Coxstraat 9.0 ,4421DC,KAPELLE,Zeeland,Closed,Secondary Branch Location,4.0,2000s,2000s,2001-08-01 to 2005-08-01,2001-08-01,2005-08-01,51.4883348,3.9585422
02LG04,D,VSTZ,RK Scholengemeenschap St Antoniuscollege voor Lyc Havo Mavo Vbo Lwoo,Nansenstraat 40.0 ,2806HM,GOUDA,Zuid-Holland,Closed,Secondary Branch Location,4.2,2000s,2000s,2001-08-01 to 2005-10-24,2001-08-01,2005-10-24,52.01221280000001,4.7249561
02LG05,D,VSTZ,RK Scholengemeenschap St Antoniuscollege voor Lyc Havo Mavo Vbo Lwoo,Willem en Marialaan 1.0 ,2805AR,GOUDA,Zuid-Holland,Closed,Secondary Branch Location,4.2,2000s,2000s,2001-08-01 to 2005-10-24,2001-08-01,2005-10-24,52.0186717,4.7154922
04OY05,D,VSTZ,Carmel College Salland SGM voor Lyc Havo Mavo Vbo Lwoo Pro,Burg Kerssemakersstraat 9.0 ,8101AL,RAALTE,Overijssel,Closed,Secondary Branch Location,6.0,2000s,2000s,2001-08-01 to 2007-08-01,2001-08-01,2007-08-01,52.3865504,6.2708248
02VC05,D,VSTZ,Comenius Christelijke Scholengemeenschap voor Atheneum Havo Mavo Vbo Lwoo,Schieringerweg 30.0 ,8924CW,LEEUWARDEN,Friesland,Closed,Secondary Branch Location,8.0,2000s,2000s,2001-08-01 to 2009-08-01,2001-08-01,2009-08-01,53.2093211,5.8245787
02VA05,D,VSTZ,Stichting christelijke school voor voortgezet onderwijs Hoogeveen,Lomanlaan 123.0 ,7906HW,HOOGEVEEN,Drenthe,Closed,Secondary Branch Location,10.0,2000s,2010s,2001-08-01 to 2011-08-01,2001-08-01,2011-08-01,52.71393029999999,6.4822074
27LL,U,VOS,Islamitisch College Amsterdam,Jacob Geelstraat 38.0 ,1065VT,AMSTERDAM,Noord-Holland,Closed,Regular Secondary School,10.0,2000s,2010s,2001-08-01 to 2011-08-01,2001-08-01,2011-08-01,52.36129,4.8310432
17AA02,D,VSTZ,De Driemark Gemeentelijke Scholengemeenschap voor Vwo Havo Vmbo,Wielewaalstraat 2.0 ,7102HB,WINTERSWIJK,Gelderland,Closed,Secondary Branch Location,11.0,2000s,2010s,2001-08-01 to 2012-08-01,2001-08-01,2012-08-01,51.9701276,6.7046791
17AA02,D,VSTZ,De Driemark Gemeentelijke Scholengemeenschap voor Vwo Havo Vmbo,Jan Stienstraweg 1.0 ,7101DM,WINTERSWIJK,Gelderland,Closed,Secondary Branch Location,11.0,2000s,2010s,2001-08-01 to 2012-08-01,2001-08-01,2012-08-01,51.9734635,6.7162263
02VA04,D,VSTZ,Stichting christelijke school voor voortgezet onderwijs Hoogeveen,Nicolaas Beetsstraat 3.0 ,7901KH,HOOGEVEEN,Drenthe,Closed,Secondary Branch Location,16.0,2000s,2010s,2001-08-01 to 2017-08-01,2001-08-01,2017-08-01,52.7221412,6.4760101
07MZ01,D,VSTZ,Protestants Christelijke School voor Praktijkonderwijs De Poort,Landrepad 7.0 ,2551CT,'S-GRAVENHAGE,Zuid-Holland,Closed,Secondary Branch Location,22.0,2000s,2020s,2001-08-01 to 2023-08-01,2001-08-01,2023-08-01,52.0598039,4.2287764
00DI04,D,VSTZ,Regionale Scholengemeenschap De Borgen,Schoolstraat 1.0 ,9301KB,RODEN,Drenthe,Active,Secondary Branch Location,23.5,2000s,,2001-08-01 to Present,2001-08-01,,53.1950146,5.9989024
00DI04,D,VSTZ,R.S.G. de Borgen,Burchtlaan 2.0 ,9301TJ,RODEN,Drenthe,Active,Secondary Branch Location,23.5,2000s,,2001-08-01 to Present,2001-08-01,,53.14153409999999,6.412541099999999
16TS03,D,VSTS,Vrije School Noord-Holland,Loudelsweg 38.0 ,1861TG,BERGEN NH,Noord-Holland,Active,Secondary Technical School,23.5,2000s,,2001-08-01 to Present,2001-08-01,,52.66515219999999,4.703436600000001
19IW05,D,VSTZ,Openbare Scholengemeenschap Hoogeveen,Wolfsbosstraat 7.0 ,7905BZ,HOOGEVEEN,Drenthe,Active,Secondary Branch Location,23.5,2000s,,2001-08-01 to Present,2001-08-01,,52.71957020000001,6.4921538
23HC02,D,VSTZ,RSG Lingercollege,Rozenstraat 44.0 ,4001DW,TIEL,Gelderland,Active,Secondary Branch Location,23.5,2000s,,2001-08-01 to Present,2001-08-01,,51.8840379,5.4209416
23VL02,D,VSTS,Scholengemeenschap Pieter Zandt voor Lyceum Havo Mavo Vbo Lwoo,Nink 2.0 ,8321AG,URK,Flevoland,Active,Secondary Technical School,23.5,2000s,,2001-08-01 to Present,2001-08-01,,52.2304454,6.0957364
23VL02,D,VSTS,Scholengemeenschap Pieter Zandt voor Lyceum Havo Mavo Vbo Lwoo,Vlechttuinen 6.0 ,8322BA,URK,Flevoland,Active,Secondary Technical School,23.5,2000s,,2001-08-01 to Present,2001-08-01,,52.66283550000001,5.6277345
26JR01,D,VSTZ,Joannesschool voor Praktijkonderwijs,Dorpsstraat 10.0 ,6681BN,BEMMEL,Gelderland,Active,Secondary Branch Location,23.5,2000s,,2001-08-01 to Present,2001-08-01,,51.89387259999999,5.901542
26JR01,D,VSTZ,Joannesschool voor Praktijkonderwijs,Sportlaan 1.0 K,6681CD,BEMMEL,Gelderland,Active,Secondary Branch Location,23.5,2000s,,2001-08-01 to Present,2001-08-01,,51.8871584,5.906401499999999
27MD,U,VOS,Kennemer College,Bullerlaan 2.0 ,1945SR,BEVERWIJK,Noord-Holland,Active,Regular Secondary School,23.5,2000s,,2001-08-01 to Present,2001-08-01,,52.4937471,4.6608634
25CM09,D,VSTZ,Christelijke Scholengemeenschap Liudger voor Lyceum Havo Mavo Vbo Lwoo,De Ring 2.0 ,9202NW,DRACHTEN,Friesland,Closed,Secondary Branch Location,1.0,2000s,2000s,2000-08-01 to 2001-08-01,2000-08-01,2001-08-01,52.3783039,4.8545416
25GE05,D,VSTZ,Christelijke Scholengemeenschap Het Streek voor Lyceum Havo Mavo Vbo Lwoo,Oranjelaan 7.0 ,6717JH,EDE,Gelderland,Closed,Secondary Branch Location,2.0,2000s,2000s,2000-08-01 to 2002-08-01,2000-08-01,2002-08-01,52.02688029999999,5.6693484
26MD01,D,VSTZ,Pronova,Varsseveldseweg 47.0 ,7131BH,LICHTENVOORDE,Gelderland,Closed,Secondary Branch Location,2.0,2000s,2000s,2000-08-01 to 2002-08-01,2000-08-01,2002-08-01,51.9841978,6.55753
26MD01,D,VSTZ,Pronova,Frans ten Boschstraat 5.0 ,7131ZW,LICHTENVOORDE,Gelderland,Closed,Secondary Branch Location,2.0,2000s,2000s,2000-08-01 to 2002-08-01,2000-08-01,2002-08-01,51.9842378,6.5598545
05FJ04,D,VSTZ,Emmacollege Scholengemeenschap voor Havo Mavo Vbo Lwoo,De Insel 21.0 ,6442AJ,BRUNSSUM,Limburg,Closed,Secondary Branch Location,3.0,2000s,2000s,2000-08-01 to 2003-08-01,2000-08-01,2003-08-01,50.949851,5.9815065
26MD02,D,VSTZ,Pronova,Frankenstraat 1.0 ,7122ZS,AALTEN,Gelderland,Closed,Secondary Branch Location,4.0,2000s,2000s,2000-08-01 to 2004-08-01,2000-08-01,2004-08-01,51.93067809999999,6.5767596
02XJ04,D,VSTZ,Reggesteijn Christelijke Scholengemeenschap voor Atheneum Havo Mavo Vbo Lwoo,Wierdensestraat 64.0 ,7461BJ,RIJSSEN,Overijssel,Closed,Secondary Branch Location,5.0,2000s,2000s,2000-08-01 to 2005-08-01,2000-08-01,2005-08-01,52.3099065,6.5246175
02FO01,D,VSTZ,Christelijke Technische School voor Vbo en Lwoo Christiaan Huygens,Lijsterhof 1.0 ,3772AA,BARNEVELD,Gelderland,Closed,Secondary Branch Location,11.0,2000s,2010s,2000-08-01 to 2011-08-01,2000-08-01,2011-08-01,52.1331107,5.5854422
25LW42,D,VSTS,ROC Noorderpoortcollege,Engelandlaan 1.0 ,9501AR,STADSKANAAL,Groningen,Closed,Secondary Technical School,14.0,2000s,2010s,2000-08-01 to 2014-08-01,2000-08-01,2014-08-01,52.9907601,6.9540161
25LW43,D,VSTS,ROC Noorderpoortcollege,Nijverheidslaan 1.0 ,9581EJ,MUSSELKANAAL,Groningen,Closed,Secondary Technical School,15.0,2000s,2010s,2000-08-01 to 2015-08-01,2000-08-01,2015-08-01,52.9279514,7.0212254
19XH02,D,VSTS,Carmelcollege,Middingstraat 1.0 ,5371EJ,RAVENSTEIN,Noord-Brabant,Closed,Secondary Technical School,17.7,2000s,2010s,2000-08-01 to 2018-04-01,2000-08-01,2018-04-01,51.7916527,5.652542299999999
06XL03,D,VSTZ,Markland College Katholieke Scholengemeenschap voor Atheneum Havo Mavo Vbo Lwoo,Mauritsweg 20.0 ,4791JL,KLUNDERT,Noord-Brabant,Closed,Secondary Branch Location,19.0,2000s,2010s,2000-08-01 to 2019-08-01,2000-08-01,2019-08-01,51.6635723,4.5290392
06XL03,D,VSTZ,Markland College Katholieke Scholengemeenschap voor Atheneum Havo Mavo Vbo Lwoo,'t Ravelijn 40.0 A,4791KC,KLUNDERT,Noord-Brabant,Closed,Secondary Branch Location,19.0,2000s,2010s,2000-08-01 to 2019-08-01,2000-08-01,2019-08-01,51.6606892,4.5259217
00CB01,D,VSTS,Scholengemeenschap voor Voortgezet Vrije Schoolonderwijs,Socrateslaan 24.0 ,3707GL,ZEIST,Utrecht,Active,Secondary Technical School,24.5,2000s,,2000-08-01 to Present,2000-08-01,,52.0994342,5.259213799999999
00CB02,D,VSTS,Scholengemeenschap voor Voortgezet Vrije Schoolonderwijs,Woenselsestraat 316.0 ,5623EG,EINDHOVEN,Noord-Brabant,Active,Secondary Technical School,24.5,2000s,,2000-08-01 to Present,2000-08-01,,51.4632307,5.472798800000001
00CB02,D,VSTS,Scholengemeenschap voor Voortgezet Vrije Schoolonderwijs,Sterrenlaan 16.0 ,5631KA,EINDHOVEN,Noord-Brabant,Active,Secondary Technical School,24.5,2000s,,2000-08-01 to Present,2000-08-01,,51.4666029,5.4990111
00DI03,D,VSTS,Regionale Scholengemeenschap De Borgen,Kersenlaan 16.0 ,9861CR,GROOTEGAST,Groningen,Active,Secondary Technical School,24.5,2000s,,2000-08-01 to Present,2000-08-01,,53.2107422,6.2732964
02EA05,D,VSTZ,Chr SGM op Ref Grondsl v Lyc Havo Mavo Vbo Lwoo,Clematislaan 2.0 ,2803AG,GOUDA,Zuid-Holland,Active,Secondary Branch Location,24.5,2000s,,2000-08-01 to Present,2000-08-01,,52.0274301,4.7014124
02EA05,D,VSTZ,Chr SGM op Ref Grondsl v Lyc Havo Mavo Vbo Lwoo,Ronsseplein 4.0 ,2803ZV,GOUDA,Zuid-Holland,Active,Secondary Branch Location,24.5,2000s,,2000-08-01 to Present,2000-08-01,,52.0198933,4.700978699999999
02UV10,D,VSTZ,Gereformeerde Scholengemeenschap voor Lyceum Havo Mavo Vbo Lwoo,Koperstraat 4.0 ,9743RW,GRONINGEN,Groningen,Active,Secondary Branch Location,24.5,2000s,,2000-08-01 to Present,2000-08-01,,53.2217168,6.5293795
02UV10,D,VSTZ,Gereformeerde Scholengemeenschap voor Lyceum Havo Mavo Vbo Lwoo,Lavendelweg 7.0 ,9731HR,GRONINGEN,Groningen,Active,Secondary Branch Location,24.5,2000s,,2000-08-01 to Present,2000-08-01,,53.23488,6.6000328
03FO04,D,VSTZ,PC Voortgezet Ond Groep V Lyc Havo Mavo Vbo Lwoo,Graaf Florislaan 2.0 ,1405BT,BUSSUM,Noord-Holland,Active,Secondary Branch Location,24.5,2000s,,2000-08-01 to Present,2000-08-01,,52.2798682,5.1521281
05AV03,D,VSTS,Twents Carmel College voor Lyceum Atheneum Havo Mavo Vbo Lwoo,Oranjestraat 2.0 ,7581EX,LOSSER,Overijssel,Active,Secondary Technical School,24.5,2000s,,2000-08-01 to Present,2000-08-01,,52.258152,7.010274399999999
16NK01,D,VSTS,De Vrije School Zutphen,Merwedestraat 45.0 ,9725KA,GRONINGEN,Groningen,Active,Secondary Technical School,24.5,2000s,,2000-08-01 to Present,2000-08-01,,53.2065506,6.566711
16PI02,D,VSTZ,Openbare Scholengemeenschap Winkler Prins voor Atheneum Havo Mavo Vbo Lwoo,Jan Salwaplein 2.0 ,9641LA,VEENDAM,Groningen,Active,Secondary Branch Location,24.5,2000s,,2000-08-01 to Present,2000-08-01,,53.10388889999999,6.868555
16TS02,D,VSTS,Vrije School Noord Holland voor Atheneum Havo Mavo,Engelandlaan 2.0 ,2034NA,HAARLEM,Noord-Holland,Active,Secondary Technical School,24.5,2000s,,2000-08-01 to Present,2000-08-01,,52.36547720000001,4.6432468
16TV01,D,VSTS,Vrije School Zuid-Holland voor Atheneum Havo Mavo,Vondelweg 89.0 ,3031PT,ROTTERDAM,Zuid-Holland,Active,Secondary Technical School,24.5,2000s,,2000-08-01 to Present,2000-08-01,,51.9268459,4.4883881
16TV01,D,VSTS,Vrije School Zuid-Holland voor Atheneum Havo Mavo,Tamboerstraat 9.0 ,3034PT,ROTTERDAM,Zuid-Holland,Active,Secondary Technical School,24.5,2000s,,2000-08-01 to Present,2000-08-01,,51.933268,4.4967805
16TV02,D,VSTS,Vrije School Zuid-Holland voor Atheneum Havo Mavo,Surinamestraat 1.0 ,2315XC,LEIDEN,Zuid-Holland,Active,Secondary Technical School,24.5,2000s,,2000-08-01 to Present,2000-08-01,,52.16659,4.5083515
16TV02,D,VSTS,Vrije School Zuid-Holland voor Atheneum Havo Mavo,Sumatrastraat 120.0 ,2315BD,LEIDEN,Zuid-Holland,Active,Secondary Technical School,24.5,2000s,,2000-08-01 to Present,2000-08-01,,52.1666196,4.5114971
20AB05,D,VSTZ,Grotius College voor Lyceum Havo Mavo Vbo Lwoo,Van Bleyswijckstraat 72.0 ,2613RT,DELFT,Zuid-Holland,Active,Secondary Branch Location,24.5,2000s,,2000-08-01 to Present,2000-08-01,,52.0035209,4.3550654
20AB05,D,VSTZ,Grotius College voor Lyceum Havo Mavo Vbo Lwoo,Aart van der Leeuwlaan 12.0 -14,2624LD,DELFT,Zuid-Holland,Active,Secondary Branch Location,24.5,2000s,,2000-08-01 to Present,2000-08-01,,51.994896,4.3503019
20AB05,D,VSTZ,Grotius College voor Lyceum Havo Mavo Vbo Lwoo,Vulcanusweg 258.0 ,2624AX,DELFT,Zuid-Holland,Active,Secondary Branch Location,24.5,2000s,,2000-08-01 to Present,2000-08-01,,51.99668089999999,4.359735
20BH02,D,VSTZ,IJsselcollege,Wiekslag 3.0 ,2903VA,CAPELLE AAN DEN IJSSEL,Zuid-Holland,Active,Secondary Branch Location,24.5,2000s,,2000-08-01 to Present,2000-08-01,,51.93525030000001,4.5907642
20BH02,D,VSTZ,IJsselcollege,Pelikaanweg 1.0 ,2903ER,CAPELLE AAN DEN IJSSEL,Zuid-Holland,Active,Secondary Branch Location,24.5,2000s,,2000-08-01 to Present,2000-08-01,,51.9307258,4.5936293
20DL13,D,VSTZ,Openbare Scholengemeenschap Piter Jelles voor Lyceum Havo Mavo Vbo Lwoo,Verdistraat 2.0 ,8915CD,LEEUWARDEN,Friesland,Active,Secondary Branch Location,24.5,2000s,,2000-08-01 to Present,2000-08-01,,53.2081461,5.775573199999999
20DL13,D,VSTZ,Openbare Scholengemeenschap Piter Jelles voor Lyceum Havo Mavo Vbo Lwoo,Egelantierstraat 88.0 ,8924EP,LEEUWARDEN,Friesland,Active,Secondary Branch Location,24.5,2000s,,2000-08-01 to Present,2000-08-01,,53.210804,5.824284
29PP,U,VOS,Chr. Streekschool Het Kompas,Houtsmastraat 11.0 b,7002KA,DOETINCHEM,Gelderland,Closed,Regular Secondary School,2.8,2000s,2000s,2000-01-01 to 2002-11-01,2000-01-01,2002-11-01,51.9729328,6.314404
03RR03,D,VSTZ,Candea College Atheneum Havo Mavo Vbo,Vincent van Goghstraat 4.0 ,6901DK,ZEVENAAR,Gelderland,Closed,Secondary Branch Location,0.0,1990s,1990s,1999-08-01 to 1999-08-02,1999-08-01,1999-08-02,51.9304605,6.0683663
16GZ02,D,VSTZ,RSG Steenwijk voor Lyc Havo Mavo Vbo Lwoo,Tukseweg 136.0 ,8334RW,TUK,Overijssel,Closed,Secondary Branch Location,3.0,1990s,2000s,1999-08-01 to 2002-08-01,1999-08-01,2002-08-01,52.79334739999999,6.1002657
03KN05,D,VSTZ,School voor Speciaal Voortgezet Onderwijs De Piramide,Burg. Goossensstraat 48.0 ,5531HE,BLADEL,Noord-Brabant,Closed,Secondary Branch Location,4.0,1990s,2000s,1999-08-01 to 2003-08-01,1999-08-01,2003-08-01,51.3697526,5.219577399999999
25FY04,D,VSTZ,Raaylandcollege RK SGM v Lyv Havo Mavo Vbo Lwoo,St. Ursulastraat 15.0 ,5801EM,VENRAY,Limburg,Closed,Secondary Branch Location,4.0,1990s,2000s,1999-08-01 to 2003-08-01,1999-08-01,2003-08-01,51.5302195,5.968246499999999
26HL01,D,VSTZ,School voor Speciaal Voortgezet Onderwijs St Servatius,Frans van de Laarplein 3.0 ,6217NH,MAASTRICHT,Limburg,Closed,Secondary Branch Location,5.0,1990s,2000s,1999-08-01 to 2004-08-01,1999-08-01,2004-08-01,50.8558945,5.6736602
26HL01,D,VSTZ,School voor Speciaal Voortgezet Onderwijs St Servatius,Terra nigrastraat 5.0 ,6216BK,MAASTRICHT,Limburg,Closed,Secondary Branch Location,5.0,1990s,2000s,1999-08-01 to 2004-08-01,1999-08-01,2004-08-01,50.8513459,5.661688499999999
26LT01,D,VSTZ,Het Segment Regionale School voor Praktijkonderwijs,Van Bergen Ijzendoornprk 49.0 ,2801AB,GOUDA,Zuid-Holland,Closed,Secondary Branch Location,5.0,1990s,2000s,1999-08-01 to 2004-08-01,1999-08-01,2004-08-01,52.0154647,4.7005512
25LW38,D,VSTZ,ROC Noorderpoortcollege,Westersingel 56.0 ,9901GJ,APPINGEDAM,Groningen,Closed,Secondary Branch Location,14.0,1990s,2010s,1999-08-01 to 2013-08-01,1999-08-01,2013-08-01,53.3218018,6.849510899999999
26KY01,D,VSTZ,School voor Speciaal Voortgezet Onderwijs St Aloysius,Acaciastraat 68.0 ,6602EN,WIJCHEN,Gelderland,Closed,Secondary Branch Location,16.0,1990s,2010s,1999-08-01 to 2015-08-01,1999-08-01,2015-08-01,51.808439,5.7399246
01AA36,D,VSTZ,Regionaal Opleidingen Centrum Onderwijs Groep de Landstede,Palestrinalaan 915.0 ,8031VA,ZWOLLE,Overijssel,Closed,Secondary Branch Location,19.0,1990s,2010s,1999-08-01 to 2018-08-01,1999-08-01,2018-08-01,52.5307351,6.0864349
14RP05,D,VSTS,Wessel Gansfortcollege v ATH HAVO MAVO PC Grndsl,Erasmusweg 1.0 ,9602AB,HOOGEZAND,Groningen,Closed,Secondary Technical School,21.0,1990s,2020s,1999-08-01 to 2020-08-01,1999-08-01,2020-08-01,53.1596361,6.7429757
02EA03,D,VSTS,Chr SGM op Ref Grondsl v Lyc Havo Mavo Vbo Lwoo,Faljerilstraat 1.0 ,2334CM,LEIDEN,Zuid-Holland,Active,Secondary Technical School,25.5,1990s,,1999-08-01 to Present,1999-08-01,,52.1721678,4.4816148
02EA03,D,VSTS,Chr SGM op Ref Grondsl v Lyc Havo Mavo Vbo Lwoo,Eijmerspoelstraat 3.0 ,2334CV,LEIDEN,Zuid-Holland,Active,Secondary Technical School,25.5,1990s,,1999-08-01 to Present,1999-08-01,,52.1720519,4.483437299999999
02EA03,D,VSTS,Chr SGM op Ref Grondsl v Lyc Havo Mavo Vbo Lwoo,Dieperpoellaan 2.0 ,2334CN,LEIDEN,Zuid-Holland,Active,Secondary Technical School,25.5,1990s,,1999-08-01 to Present,1999-08-01,,52.1725405,4.482622699999999
02EA03,D,VSTS,Chr SGM op Ref Grondsl v Lyc Havo Mavo Vbo Lwoo,Vennemeerstraat 5.0 ,2334DE,LEIDEN,Zuid-Holland,Active,Secondary Technical School,25.5,1990s,,1999-08-01 to Present,1999-08-01,,52.1728149,4.4844744
13OR03,D,VSTS,Scholengroep Noord en Midden-Zeeland,Hatfieldpark 1.0 -2,4301XC,ZIERIKZEE,Zeeland,Active,Secondary Technical School,25.5,1990s,,1999-08-01 to Present,1999-08-01,,51.6514302,3.9078909
14RP04,D,VSTS,Wessel Gansfortcollege v ATH HAVO MAVO PC Grndsl,Meeden 35.0 ,9951HX,WINSUM GN,Groningen,Active,Secondary Technical School,25.5,1990s,,1999-08-01 to Present,1999-08-01,,53.3259386,6.5301375
25GC08,D,VSTS,Scholengemeenschap Breda voor Katholiek Lyceum Havo Mavo Vbo Lwoo,Sportlaan 1.0 ,5111BX,BAARLE-NASSAU,Noord-Brabant,Active,Secondary Technical School,25.5,1990s,,1999-08-01 to Present,1999-08-01,,51.4491857,4.926030900000001
27EK,U,VOS,Openbare School voor MAVO De Levant,Raadhuisplein 1.0 ,3891ER,ZEEWOLDE,Flevoland,Closed,Regular Secondary School,4.1,1990s,2000s,1999-07-01 to 2003-08-01,1999-07-01,2003-08-01,52.33174899999999,5.5447672
27DG,U,VOS,Evangelische School voor VWO HAVO MAVO De Passie,Zwarte Woud 211.0 ,3524SG,UTRECHT,Utrecht,Active,Regular Secondary School,25.6,1990s,,1999-06-01 to Present,1999-06-01,,52.0623699,5.1414234
26JU,U,PROS,School voor Speciaal Voortgezet Onderwijs Koningin Wilhelmina,Stevinstraat 2.0 ,3817WG,AMERSFOORT,Utrecht,Closed,Practical Education,2.0,1990s,2000s,1998-08-01 to 2000-08-01,1998-08-01,2000-08-01,52.1417772,5.3893461
26JC,U,PROS,School voor Speciaal Voortgezet Onderwijs Deken Souren,Graafschap Hornelaan 15.0 ,6001AA,WEERT,Limburg,Closed,Practical Education,4.0,1990s,2000s,1998-08-01 to 2002-08-01,1998-08-01,2002-08-01,51.2517349,5.7143674
26JC,U,PROS,School voor Praktijkonderwijs,Julianalaan 100.0 ,6006AP,WEERT,Limburg,Closed,Practical Education,4.0,1990s,2000s,1998-08-01 to 2002-08-01,1998-08-01,2002-08-01,51.2462665,5.710054899999999
26JP,U,PROS,School voor Speciaal Voortgezet Onderwijs Het Zonnehuis,Kastanjestraat 29.0 a,7572TG,OLDENZAAL,Overijssel,Closed,Practical Education,4.0,1990s,2000s,1998-08-01 to 2002-08-01,1998-08-01,2002-08-01,52.3081292,6.9253392
26MH,U,PROS,Rooms Katholieke School voor Praktijkonderwijs De Toermalijn,Arkelstein 8.0 ,7414EP,DEVENTER,Overijssel,Closed,Practical Education,4.0,1990s,2000s,1998-08-01 to 2002-08-01,1998-08-01,2002-08-01,52.2725652,6.154584499999999
02UX07,D,VSTS,Vechtdal College Scholengemeenschap voor Atheneum Havo Mavo Vbo Lwoo,De Tye 1.0 ,7683AS,DEN HAM OV,Overijssel,Closed,Secondary Technical School,6.0,1990s,2000s,1998-08-01 to 2004-08-01,1998-08-01,2004-08-01,52.3783039,4.8545416
26HM,U,PROS,G. Buntschool voor Praktijkonderwijs,Willem de Zwijgerlaan 2.0 ,3314NX,DORDRECHT,Zuid-Holland,Closed,Practical Education,6.0,1990s,2000s,1998-08-01 to 2004-08-01,1998-08-01,2004-08-01,51.9278612,4.3428984
26KK,U,PROS,School voor Praktijkonderwijs,Ter Haarkade 1.0 ,2321AS,LEIDEN,Zuid-Holland,Closed,Practical Education,10.0,1990s,2000s,1998-08-01 to 2008-08-01,1998-08-01,2008-08-01,52.15693650000001,4.4747337
26JD,U,PROS,School voor Speciaal Voortgezet Onderwijs Vijverhof,Domineeslaantje 2.0 -4,3621ED,BREUKELEN,Utrecht,Closed,Practical Education,11.0,1990s,2000s,1998-08-01 to 2009-08-01,1998-08-01,2009-08-01,52.1717084,4.9976123
20MJ06,D,VSTZ,Scholengemeenschap Johan de Witt College voor Aheneum Havo Mavo Vbo Lwoo,Capadosestraat 15.0 ,2523AB,'S-GRAVENHAGE,Zuid-Holland,Closed,Secondary Branch Location,14.0,1990s,2010s,1998-08-01 to 2012-08-01,1998-08-01,2012-08-01,52.0580945,4.3179608
26JN,U,PROS,School voor Speciaal Voortgezet Onderwijs Deken Tijssen,Parallelweg 9.0 ,6131BJ,SITTARD,Limburg,Closed,Practical Education,16.0,1990s,2010s,1998-08-01 to 2014-08-01,1998-08-01,2014-08-01,51.0033149,5.8615819
26KN,U,PROS,Choisy school voor Praktijkonderwijs,Laan van Eikenstein 2.0 ,3705AR,ZEIST,Utrecht,Closed,Practical Education,17.0,1990s,2010s,1998-08-01 to 2015-08-01,1998-08-01,2015-08-01,52.0948371,5.2255829
26JB,U,PROS,School voor Speciaal Voortgezet Onderwijs De Toermalijn,Hortensialaan 87.0 ,5701WL,HELMOND,Noord-Brabant,Closed,Practical Education,18.0,1990s,2010s,1998-08-01 to 2016-08-01,1998-08-01,2016-08-01,51.4791101,5.6777599
26JB,U,PROS,SSVO Praktijkschool De Wieken,Nieuwveld 2.0 ,5702HW,HELMOND,Noord-Brabant,Closed,Practical Education,18.0,1990s,2010s,1998-08-01 to 2016-08-01,1998-08-01,2016-08-01,51.4951696,5.6688009
26JB,U,PROS,SSVO Praktijkschool De Wieken,St. Willibrordstraat 10.0 ,5701TA,HELMOND,Noord-Brabant,Closed,Practical Education,18.0,1990s,2010s,1998-08-01 to 2016-08-01,1998-08-01,2016-08-01,51.4847666,5.6586678
26JB,U,PROS,SSVO Praktijkschool De Wieken,Generaal Snijdersstraat 51.0 ,5703GR,HELMOND,Noord-Brabant,Closed,Practical Education,18.0,1990s,2010s,1998-08-01 to 2016-08-01,1998-08-01,2016-08-01,51.4818301,5.6798123
26MG,U,PROS,Praktijkschool Sneek,Oude Koemarkt 20.0 ,8601EK,SNEEK,Friesland,Closed,Practical Education,21.0,1990s,2010s,1998-08-01 to 2019-08-01,1998-08-01,2019-08-01,53.030603,5.659392599999999
26MG,U,PROS,De Praktijkschool,Simmerdyk 1.0 A,8601ZP,SNEEK,Friesland,Closed,Practical Education,21.0,1990s,2010s,1998-08-01 to 2019-08-01,1998-08-01,2019-08-01,53.0323984,5.6431073
20DL11,D,VSTS,Openbare Scholengemeenschap Piter Jelles voor LYC HAVO MAVO VBO IVBO,Hartman Sannesstraat 7.0 ,9076EB,ST.-ANNAPAROCHIE,Friesland,Closed,Secondary Technical School,22.0,1990s,2020s,1998-08-01 to 2020-08-01,1998-08-01,2020-08-01,53.274414,5.653910300000001
01RL02,D,VSTS,Jacobus Fruytier Scholengemeenschap voor ATH HAVO MAVO VBO LWOO,Garderenseweg 36.0 -38,3888LC,UDDEL,Gelderland,Active,Secondary Technical School,26.5,1990s,,1998-08-01 to Present,1998-08-01,,52.255904,5.7793996
01RL02,D,VSTS,Jacobus Fruijtier Scholengemeenschap v Lyceum Havo Mavo Vbo Lwoo,Garderenseweg 37.0 -43,3888LA,UDDEL,Gelderland,Active,Secondary Technical School,26.5,1990s,,1998-08-01 to Present,1998-08-01,,52.2548532,5.7790696
02UX06,D,VSTS,Vechtdal College Scholengemeenschap voor Atheneum Havo Mavo Vbo Lwoo,Van Reeuwijkstraat 1.0 ,7731EH,OMMEN,Overijssel,Active,Secondary Technical School,26.5,1990s,,1998-08-01 to Present,1998-08-01,,52.5272678,6.420828999999999
02UX06,D,VSTS,Vechtdal College Scholengemeenschap voor Atheneum Havo Mavo Vbo Lwoo,Balkerweg 2.0 ,7731RZ,OMMEN,Overijssel,Active,Secondary Technical School,26.5,1990s,,1998-08-01 to Present,1998-08-01,,52.5284088,6.4203421
02VT01,D,VSTS,Agnieten College voor Lyceum Havo Mavo Vbo Lwoo,Arembergerstraat 3.0 ,8064BC,ZWARTSLUIS,Overijssel,Active,Secondary Technical School,26.5,1990s,,1998-08-01 to Present,1998-08-01,,52.6412093,6.068046100000001
02VT01,D,VSTS,Agnieten College Zwartsluis voor Lyceum Havo Mavo Vbo Lwoo,Rondweg 2.0 ,8064PA,ZWARTSLUIS,Overijssel,Active,Secondary Technical School,26.5,1990s,,1998-08-01 to Present,1998-08-01,,51.9723145,6.7257887
02VT04,D,VSTS,Agnieten College voor Lyceum Havo Mavo Vbo Lwoo,Zwaluwlaan 23.0 ,7711LN,NIEUWLEUSEN,Overijssel,Active,Secondary Technical School,26.5,1990s,,1998-08-01 to Present,1998-08-01,,52.5786074,6.2827292
02VT04,D,VSTS,Agnieten College Nieuwleusen voor Lyceum Havo Mavo Vbo Lwoo,Kon.Julianalaan 10.0 ,7711KK,NIEUWLEUSEN,Overijssel,Active,Secondary Technical School,26.5,1990s,,1998-08-01 to Present,1998-08-01,,52.582136,6.284449
20DL12,D,VSTS,OPB SGM Piter Jelles voor LYC HAVO MAVO VBO IVBO,Rondweg-Noord 15.0 ,9101AD,DOKKUM,Friesland,Active,Secondary Technical School,26.5,1990s,,1998-08-01 to Present,1998-08-01,,53.3297457,5.996663
20DL12,D,VSTS,Openbare Scholengemeenschap Piter Jelles voor Lyceum Havo Mavo Vbo Lwoo,Parklaan 1.0 ,9103ST,DOKKUM,Friesland,Active,Secondary Technical School,26.5,1990s,,1998-08-01 to Present,1998-08-01,,51.24172979999999,5.693857899999999
20IB03,D,VSTS,Eckartcollege voor LYC HAVO MAVO VBO LWOO,Sportlaan 8.0 ,5671GR,NUENEN,Noord-Brabant,Active,Secondary Technical School,26.5,1990s,,1998-08-01 to Present,1998-08-01,,51.4705653,5.5518306
20IB03,D,VSTS,"Eckartcollege, Pleincollege Nuenen voor LYc Havo Mavo Vbo Lwoo",Vrouwkensakker 17.0 ,5673PE,NUENEN,Noord-Brabant,Active,Secondary Technical School,26.5,1990s,,1998-08-01 to Present,1998-08-01,,51.4703768,5.5611182
23VL01,D,VSTS,Scholengemeenschap Pieter Zandt voor Lyceum Havo Mavo Vbo Lwoo,Achthoevenweg 3.0 ,7951SK,STAPHORST,Overijssel,Active,Secondary Technical School,26.5,1990s,,1998-08-01 to Present,1998-08-01,,52.6347743,6.2129847
26HD,U,PROS,Algemeen Bijzondere School voor Praktijkonderwijs De Sprong,Elzenhof 124.0 ,3363HE,SLIEDRECHT,Zuid-Holland,Active,Practical Education,26.5,1990s,,1998-08-01 to Present,1998-08-01,,51.82548500000001,4.7577953
26HF,U,PROS,Algemeen Bijzonder School voor Praktijkonderwijs De Wissel,Industriestraat 3.0 ,4462EZ,GOES,Zeeland,Active,Practical Education,26.5,1990s,,1998-08-01 to Present,1998-08-01,,51.49647969999999,3.8872918
26HF,U,PROS,Algemeen Bijzonder School voor Praktijkonderwijs De Wissel,Bergweg 8.0 ,4461NB,GOES,Zeeland,Active,Practical Education,26.5,1990s,,1998-08-01 to Present,1998-08-01,,52.2271525,6.886372499999999
26HL,U,PROS,School voor Speciaal Voortgezet Onderwijs St Servatius,Grubbe 5.0 ,6226NJ,MAASTRICHT,Limburg,Active,Practical Education,26.5,1990s,,1998-08-01 to Present,1998-08-01,,51.32436999999999,3.4852461
26HN,U,PROS,Rijnschool voor Praktijkonderwijs,Commandeurslaan 29.0 ,2223AX,KATWIJK ZH,Zuid-Holland,Active,Practical Education,26.5,1990s,,1998-08-01 to Present,1998-08-01,,52.195096,4.421668299999999
26HN,U,PROS,Limes Praktijkonderwijs,Louise de Colignylaan 5.0 ,2224VT,KATWIJK ZH,Zuid-Holland,Active,Practical Education,26.5,1990s,,1998-08-01 to Present,1998-08-01,,52.1959509,4.4164566
26HP,U,PROS,School voor Speciaal Voortgezet Onderwijs Parnassia,Markengouw 428.0 ,1024EK,AMSTERDAM,Noord-Holland,Active,Practical Education,26.5,1990s,,1998-08-01 to Present,1998-08-01,,52.3974224,4.9580909
26HP,U,PROS,Kolom praktijkcollege Noord,Oostzanerdijk 139.0 ,1035EX,AMSTERDAM,Noord-Holland,Active,Practical Education,26.5,1990s,,1998-08-01 to Present,1998-08-01,,52.4204974,4.8785709
26HR,U,PROS,School voor Praktijkonderwijs De Brug,Fazantstraat 1.0 a,2902JA,CAPELLE AAN DEN IJSSEL,Zuid-Holland,Active,Practical Education,26.5,1990s,,1998-08-01 to Present,1998-08-01,,51.93089,4.5852001
26HR,U,PROS,Accent Praktijkonderwijs Capelle,Wisselspoor 2.0 ,2908AC,CAPELLE AAN DEN IJSSEL,Zuid-Holland,Active,Practical Education,26.5,1990s,,1998-08-01 to Present,1998-08-01,,51.9559515,4.5817928
26HU,U,PROS,School voor Speciaal Voortgezet Onderwijs De Viersprong,Esdoornlaan 34.0 ,3862HJ,NIJKERK,Gelderland,Active,Practical Education,26.5,1990s,,1998-08-01 to Present,1998-08-01,,52.2188841,5.493691600000001
26HU,U,PROS,School voor Speciaal Voortgezet Onderwijs De Viersprong,ds. Kuypersstraat 1.0 ,3863CA,NIJKERK,Gelderland,Active,Practical Education,26.5,1990s,,1998-08-01 to Present,1998-08-01,,52.211237,5.468987
26HV,U,PROS,School voor Praktijk Onderwijs De Opstap,Zandlaan 25.0 ,6717LN,EDE,Gelderland,Active,Practical Education,26.5,1990s,,1998-08-01 to Present,1998-08-01,,52.0183011,5.6687509
26HX,U,PROS,School voor Speciaal Voortgezet Onderwijs Tricon,Oude Roswinkelerweg 25.0 ,7822AB,EMMEN,Drenthe,Active,Practical Education,26.5,1990s,,1998-08-01 to Present,1998-08-01,,52.7961298,6.9036597
26HX,U,PROS,Praktijkschool Emmen,Ullevi 22.0 ,7825SE,EMMEN,Drenthe,Active,Practical Education,26.5,1990s,,1998-08-01 to Present,1998-08-01,,53.20881559999999,6.550324
26HY,U,PROS,Dynselburgschool voor Praktijkonderwijs,Bergweg 97.0 ,3707AC,ZEIST,Utrecht,Active,Practical Education,26.5,1990s,,1998-08-01 to Present,1998-08-01,,52.097033,5.2451215
26JE,U,PROS,Praktijkschool Koningin Emma,Boslaan 2.0 ,2132DX,HOOFDDORP,Noord-Holland,Active,Practical Education,26.5,1990s,,1998-08-01 to Present,1998-08-01,,51.9723145,6.7257887
26JE,U,PROS,Praktijkschool Koningin Emma,Van den Berghlaan 130.0 ,2132AV,HOOFDDORP,Noord-Holland,Active,Practical Education,26.5,1990s,,1998-08-01 to Present,1998-08-01,,52.3074604,4.698055099999999
26JE,U,PROS,Praktijkschool Uithoorn,Legmeerplein 55.0 ,1422RG,UITHOORN,Noord-Holland,Active,Practical Education,26.5,1990s,,1998-08-01 to Present,1998-08-01,,52.24965150000001,4.8179924
26JR,U,PROS,School voor Speciaal Voortgezet Onderwijs St Joannes,Celebesstraat 12.0 ,6524KE,NIJMEGEN,Gelderland,Active,Practical Education,26.5,1990s,,1998-08-01 to Present,1998-08-01,,51.8366598,5.8638658
26JR,U,PROS,Pro College Nijmegen/Bemmel voor Praktijkonderwijs,Dennenstraat 21.0 ,6543JP,NIJMEGEN,Gelderland,Active,Practical Education,26.5,1990s,,1998-08-01 to Present,1998-08-01,,51.83092449999999,5.824340299999999
26JT,U,PROS,Praktijkschool St. Willibrordus,Lekstraat 3.0 ,6826AG,ARNHEM,Gelderland,Active,Practical Education,26.5,1990s,,1998-08-01 to Present,1998-08-01,,51.9845394,5.9391902
26JT,U,PROS,Praktijkschool Arentheem,IJssellaan 89.0 ,6826DM,ARNHEM,Gelderland,Active,Practical Education,26.5,1990s,,1998-08-01 to Present,1998-08-01,,51.9844029,5.9457
26JT,U,PROS,Praktijkschool Arentheem,Laan van Presikhaaf 11.0 ,6826HB,ARNHEM,Gelderland,Active,Practical Education,26.5,1990s,,1998-08-01 to Present,1998-08-01,,51.9861155,5.9430363
26JT,U,PROS,Praktijkschool Arentheem,Laan van Presikhaaf 5.0 ,6826HA,ARNHEM,Gelderland,Active,Practical Education,26.5,1990s,,1998-08-01 to Present,1998-08-01,,51.9839607,5.9443589
26JV,U,PROS,Praktijkschool Hulst,Koolstraat 17.0 ,4561GW,HULST,Zeeland,Active,Practical Education,26.5,1990s,,1998-08-01 to Present,1998-08-01,,51.2831287,4.060126299999999
26JV,U,PROS,Praktijkschool Hulst,Frederik Hendriklaan 16.0 ,4561WE,HULST,Zeeland,Active,Practical Education,26.5,1990s,,1998-08-01 to Present,1998-08-01,,51.2837228,4.0609835
26JY,U,PROS,De Pijler school voor praktijk onderwijs,Drs. F. Bijlweg 3.0 ,1784MC,DEN HELDER,Noord-Holland,Active,Practical Education,26.5,1990s,,1998-08-01 to Present,1998-08-01,,52.938303,4.754464899999999
26JY,U,PROS,De Pijler school voor praktijk onderwijs,Hector Treubstraat 82.0 ,1782HH,DEN HELDER,Noord-Holland,Active,Practical Education,26.5,1990s,,1998-08-01 to Present,1998-08-01,,52.9539754,4.759428
26JY,U,PROS,De Pijler school voor praktijk onderwijs,Sportlaan 62.0 ,1782ND,DEN HELDER,Noord-Holland,Active,Practical Education,26.5,1990s,,1998-08-01 to Present,1998-08-01,,52.9516491,4.7542374
26JY,U,PROS,De Pijler school voor praktijk onderwijs,Drs. F. Bijlweg 232.0 ,1784MC,DEN HELDER,Noord-Holland,Active,Practical Education,26.5,1990s,,1998-08-01 to Present,1998-08-01,,52.9382521,4.7542744
26JZ,U,PROS,"Petra Praktijkschool, Christelijk Voortgezet Onderwijs",Loggerstraat 117.0 A,1503KC,ZAANDAM,Noord-Holland,Active,Practical Education,26.5,1990s,,1998-08-01 to Present,1998-08-01,,52.4522116,4.8369576
26JZ,U,PROS,"Petra Praktijkschool, Christelijk Voortgezet Onderwijs",Slachthuisstraat 65.0 ,1508EC,ZAANDAM,Noord-Holland,Active,Practical Education,26.5,1990s,,1998-08-01 to Present,1998-08-01,,52.4619521,4.8161493
26JZ,U,PROS,De Faam voor Praktijkonderwijs,Blooksven 21.0 ,1504AN,ZAANDAM,Noord-Holland,Active,Practical Education,26.5,1990s,,1998-08-01 to Present,1998-08-01,,52.4373347,4.8436109
26KA,U,PROS,Praktijkschool Woerden,Abeellaan 2.0 ,3442JB,WOERDEN,Utrecht,Active,Practical Education,26.5,1990s,,1998-08-01 to Present,1998-08-01,,52.07964,4.872735
26KA,U,PROS,Praktijkschool Woerden,Kuipersweg 25.0 a/b,3449JA,WOERDEN,Utrecht,Active,Practical Education,26.5,1990s,,1998-08-01 to Present,1998-08-01,,52.084408,4.8641028
26KH,U,PROS,School voor Speciaal Voortgezet Onderwijs Prinses Beatrix,Van Limburg Stirumlaan 5.0 ,7003BG,DOETINCHEM,Gelderland,Active,Practical Education,26.5,1990s,,1998-08-01 to Present,1998-08-01,,51.9655234,6.3022506
26KH,U,PROS,Praktijkschool Rozengaarde SVO,Tollensstraat 5.0 ,7002AC,DOETINCHEM,Gelderland,Active,Practical Education,26.5,1990s,,1998-08-01 to Present,1998-08-01,,51.9698123,6.298645899999999
26KH,U,PROS,PRAKTICON,Spoorstraat 11.0 b,7003DX,DOETINCHEM,Gelderland,Active,Practical Education,26.5,1990s,,1998-08-01 to Present,1998-08-01,,51.9590336,6.301031
26KP,U,PROS,De Compagnie SVO Praktijkonderwijs,Buitenbaan 3.0 ,8441HB,HEERENVEEN,Friesland,Active,Practical Education,26.5,1990s,,1998-08-01 to Present,1998-08-01,,52.9681834,5.9194688
26KP,U,PROS,De Compagnie Praktijkonderwijs Sevenwolden,Ds Kingweg 10.0 ,8446KZ,HEERENVEEN,Friesland,Active,Practical Education,26.5,1990s,,1998-08-01 to Present,1998-08-01,,52.9476536,5.9276106
26KR,U,PROS,De Wheemergaarden SVO School/Praktijkschool,Wheemerstraat 15.0 A,7161AN,NEEDE,Gelderland,Active,Practical Education,26.5,1990s,,1998-08-01 to Present,1998-08-01,,52.1302782,6.6187198
26KR,U,PROS,MaxX,Parallelweg 5.0 ,7161AE,NEEDE,Gelderland,Active,Practical Education,26.5,1990s,,1998-08-01 to Present,1998-08-01,,50.8813271,5.7571541
26KV,U,PROS,School voor Speciaal Voortgezet Onderwijs van Toledo,Blekersweg 30.0 ,7312GL,APELDOORN,Gelderland,Active,Practical Education,26.5,1990s,,1998-08-01 to Present,1998-08-01,,52.20398770000001,5.9464574
26KV,U,PROS,Praktijkschool Apeldoorn,Fabianusstraat 2.0 ,7333BM,APELDOORN,Gelderland,Active,Practical Education,26.5,1990s,,1998-08-01 to Present,1998-08-01,,52.1925676,5.9644886
26KV,U,PROS,Praktijkschool Apeldoorn,Prins Willem-Alexanderln 900.0 ,7312GD,APELDOORN,Gelderland,Active,Practical Education,26.5,1990s,,1998-08-01 to Present,1998-08-01,,52.2068837,5.949070799999999
26KY,U,PROS,School voor Speciaal Voortgezet Onderwijs Zonnegaard,Veldstraat 4.0 ,6533CC,NIJMEGEN,Gelderland,Active,Practical Education,26.5,1990s,,1998-08-01 to Present,1998-08-01,,51.8220034,5.852688499999999
26KZ,U,PROS,Praktijkschool Coriovallum,Burettestraat 1.0 ,6415SM,HEERLEN,Limburg,Active,Practical Education,26.5,1990s,,1998-08-01 to Present,1998-08-01,,50.89745929999999,5.9826896
26KZ,U,PROS,School voor Praktijkonderwijs Parkstad Limburg,Sittarderweg 75.0 ,6412CC,HEERLEN,Limburg,Active,Practical Education,26.5,1990s,,1998-08-01 to Present,1998-08-01,,50.8942408,5.9736356
26LL,U,PROS,PC/RK School voor Praktijkonderwijs De Sprong,Leeuwenlaan 19.0 ,4532AC,TERNEUZEN,Zeeland,Active,Practical Education,26.5,1990s,,1998-08-01 to Present,1998-08-01,,51.3326198,3.8356058
26LL,U,PROS,PC/RK School voor Praktijkonderwijs De Sprong,Evertsenlaan 84.0 A,4535AD,TERNEUZEN,Zeeland,Active,Practical Education,26.5,1990s,,1998-08-01 to Present,1998-08-01,,51.3229954,3.8511659
26LR,U,PROS,Groene Hart Praktijkschool,Anna van Burenlaan 15.0 ,2404GA,ALPHEN AAN DEN RIJN,Zuid-Holland,Active,Practical Education,26.5,1990s,,1998-08-01 to Present,1998-08-01,,52.1320438,4.6535842
26LT,U,PROS,Het Segment Regionale School voor Praktijkonderwijs,Van Bergen Ijzendoornprk 45.0 ,2801AB,GOUDA,Zuid-Holland,Active,Practical Education,26.5,1990s,,1998-08-01 to Present,1998-08-01,,52.0160558,4.7014779
26LT,U,PROS,Het Segment Regionale School voor Praktijkonderwijs,Winterdijk 14.0 ,2801SJ,GOUDA,Zuid-Holland,Active,Practical Education,26.5,1990s,,1998-08-01 to Present,1998-08-01,,52.0168788,4.6979656
26LT,U,PROS,Het Segment Regionale School voor Praktijkonderwijs,Van Bergen Ijzendoornprk 43.0 ,2801AB,GOUDA,Zuid-Holland,Active,Practical Education,26.5,1990s,,1998-08-01 to Present,1998-08-01,,52.0164348,4.7012921
26LU,U,PROS,School voor Praktijkonderwijs De Toermalijn,Wielkamp 1.0 ,5301DB,ZALTBOMMEL,Gelderland,Active,Practical Education,26.5,1990s,,1998-08-01 to Present,1998-08-01,,51.801686,5.241239999999999
26LU,U,PROS,De Brug School voor Praktijkonderwijs,Sportlaan 2.0 ,5301PX,ZALTBOMMEL,Gelderland,Active,Practical Education,26.5,1990s,,1998-08-01 to Present,1998-08-01,,53.404447,6.671832999999999
26MD,U,PROS,Pronova,Huininkmaatstraat 3.0 ,7101HX,WINTERSWIJK,Gelderland,Active,Practical Education,26.5,1990s,,1998-08-01 to Present,1998-08-01,,51.9676432,6.7240006
