full_address,latitude,longitude
"Handelskade 75 , 7417DH, DEVENTER, Overijssel, Netherlands",52.2543628,6.1679002
"Handelskade 75 , 7417DH, DEVENTER, Overijssel, Netherlands",52.2543628,6.1679002
"Handelskade 75 , 7417DH, DEVENTER, Overijssel, Netherlands",52.2543628,6.1679002
"Handelskade 75 , 7417DH, DEVENTER, Overijssel, Netherlands",52.2543628,6.1679002
"Rudolf van Diepholtstr 21 , 7415XZ, DEVENTER, Overijssel, Netherlands",52.2744831,6.157325699999999
"Keizer Karellaan 185 , 7415ZG, DEVENTER, Overijssel, Netherlands",52.27421769999999,6.164911
"Oostriklaan 40 , 7423EL, DEVENTER, Overijssel, Netherlands",52.2511763,6.2156056
"H.J.Ph. Fesevurstraat 9 , 7415CM, DEVENTER, Overijssel, Netherlands",52.261914,6.170536999999999
"Polstraat 71 , 7411KX, DEVENTER, Overijssel, Netherlands",52.25042329999999,6.1581136
"Lange Zandstraat 179 , 7412CG, DEVENTER, Overijssel, Netherlands",52.26020159999999,6.140696399999999
"Heidelberglaan 2 , 3584CS, UTRECHT, Utrecht, Netherlands",52.0856523,5.1791635
"Keizersgracht 105 , 1015CH, AMSTERDAM, Noord-Holland, Netherlands",52.3768477,4.888413799999999
"Koningin Wilhelminalaan 3 , 3818HN, AMERSFOORT, Utrecht, Netherlands",52.1498454,5.370730399999999
"Jan de Bakkerstraat 13 -15, 3441ED, WOERDEN, Utrecht, Netherlands",52.0876728,4.8850649
"Joseph Haydnlaan 2 A, 3533AE, UTRECHT, Utrecht, Netherlands",52.0826246,5.083969199999999
"Koornmarkt 1 , 8261JX, KAMPEN, Overijssel, Netherlands",52.5549271,5.920958199999999
"Koornmarkt 1 , 8261JX, KAMPEN, Overijssel, Netherlands",52.5549271,5.920958199999999
"De Boelelaan 1105 , 1081HV, AMSTERDAM, Noord-Holland, Netherlands",52.33426710000001,4.8669632
"Oudestraat 6 , 8261CP, KAMPEN, Overijssel, Netherlands",52.5553751,5.9196127
"Oudestraat 6 , 8261CP, KAMPEN, Overijssel, Netherlands",52.5553751,5.9196127
"Heidelberglaan 2 , 3584CS, UTRECHT, Utrecht, Netherlands",52.0856523,5.1791635
"Oude Ebbingestraat 25 , 9712HA, GRONINGEN, Groningen, Netherlands",53.22018509999999,6.5668023
"Matthias de Vrieshof 1 , 2311BZ, LEIDEN, Zuid-Holland, Netherlands",52.1580929,4.4810894
"Biltseweg 10 , 3735MC, BOSCH EN DUIN, Utrecht, Netherlands",52.1238004,5.2341856
"De Steiger 7 A, 1351AA, ALMERE, Flevoland, Netherlands",52.3507893,5.219519900000001
"Verzetsstrijderslaan 2 , 9727CE, GRONINGEN, Groningen, Netherlands",53.20774600000001,6.556798000000001
"Mr. P.J. Troelstraweg 78 , 8917CR, LEEUWARDEN, Friesland, Netherlands",53.2102379,5.786336400000001
"Heindijk 16 , 3079PM, ROTTERDAM, Zuid-Holland, Netherlands",51.8826554,4.545847699999999
"Heindijk 16 , 3079PM, ROTTERDAM, Zuid-Holland, Netherlands",51.8826554,4.545847699999999
"Schoolstraat 11 , 3241CT, MIDDELHARNIS, Zuid-Holland, Netherlands",51.7593313,4.1612797
"Schoolstraat 11 , 3241CT, MIDDELHARNIS, Zuid-Holland, Netherlands",51.7593313,4.1612797
"Juniusstraat 6 , 2625XZ, DELFT, Zuid-Holland, Netherlands",51.9980772,4.3472471
"Juniusstraat 6 , 2625XZ, DELFT, Zuid-Holland, Netherlands",51.9980772,4.3472471
"Mercuriuslaan 16 , 3255TV, OUDE-TONGE, Zuid-Holland, Netherlands",51.6952006,4.2081709
"Mercuriuslaan 16 , 3255TV, OUDE-TONGE, Zuid-Holland, Netherlands",51.6952006,4.2081709
"Mercuriuslaan 16 , 3255TV, OUDE-TONGE, Zuid-Holland, Netherlands",51.6952006,4.2081709
"Mercuriuslaan 16 , 3255TV, OUDE-TONGE, Zuid-Holland, Netherlands",51.6952006,4.2081709
"Mercuriuslaan 16 , 3255TV, OUDE-TONGE, Zuid-Holland, Netherlands",51.6952006,4.2081709
"Buys-Ballotlaan 25 , 3132SC, VLAARDINGEN, Zuid-Holland, Netherlands",51.9114826,4.3119939
"Buys-Ballotlaan 25 , 3132SC, VLAARDINGEN, Zuid-Holland, Netherlands",51.9114826,4.3119939
"Buys-Ballotlaan 25 , 3132SC, VLAARDINGEN, Zuid-Holland, Netherlands",51.9114826,4.3119939
"Kanaalstraat 31 , 2801SH, GOUDA, Zuid-Holland, Netherlands",52.0152886,4.6959982
"Kanaalstraat 31 , 2801SH, GOUDA, Zuid-Holland, Netherlands",52.0152886,4.6959982
"Uitloop 44 , 3262CE, OUD-BEIJERLAND, Zuid-Holland, Netherlands",51.8239369,4.4016959
"Uitloop 44 , 3262CE, OUD-BEIJERLAND, Zuid-Holland, Netherlands",51.8239369,4.4016959
"Krekelveen 338 , 3205RJ, SPIJKENISSE, Zuid-Holland, Netherlands",51.8305918,4.3395106
"Krekelveen 338 , 3205RJ, SPIJKENISSE, Zuid-Holland, Netherlands",51.8305918,4.3395106
"Spinozaweg 400 , 3076ET, ROTTERDAM, Zuid-Holland, Netherlands",51.8763709,4.5135236
"Schiedamseweg 245 , 3118JB, SCHIEDAM, Zuid-Holland, Netherlands",51.9238104,4.3838406
"Schiedamseweg 245 , 3118JB, SCHIEDAM, Zuid-Holland, Netherlands",51.9238104,4.3838406
"Mathenesserdijk 455 , 3026GH, ROTTERDAM, Zuid-Holland, Netherlands",51.9115544,4.446767700000001
"Brouwerijstraat 1 , 3142GA, MAASSLUIS, Zuid-Holland, Netherlands",51.9241231,4.2609899
"Burg Van Haarenlaan 952 , 3118GL, SCHIEDAM, Zuid-Holland, Netherlands",51.92043899999999,4.382090499999999
"Druivenstraat 1 , 2671SC, NAALDWIJK, Zuid-Holland, Netherlands",51.988862,4.219315
"Druivenstraat 1 , 2671SC, NAALDWIJK, Zuid-Holland, Netherlands",51.988862,4.219315
"Haastrechtstraat 3 , 3079DC, ROTTERDAM, Zuid-Holland, Netherlands",51.8796435,4.5376234
"Haastrechtstraat 3 , 3079DC, ROTTERDAM, Zuid-Holland, Netherlands",51.8796435,4.5376234
"Weena 743 , 3013AL, ROTTERDAM, Zuid-Holland, Netherlands",51.9228454,4.4657152
"Weena 743 , 3013AL, ROTTERDAM, Zuid-Holland, Netherlands",51.9228454,4.4657152
"Zuster Hennekeplein 80 , 3033BW, ROTTERDAM, Zuid-Holland, Netherlands",51.9264331,4.4749237
"Zuster Hennekeplein 80 , 3033BW, ROTTERDAM, Zuid-Holland, Netherlands",51.9264331,4.4749237
"Aleyda van Raephorstlaan 245 , 3054CR, ROTTERDAM, Zuid-Holland, Netherlands",51.95941939999999,4.4834875
"Baljuwstraat 2 , 3039AK, ROTTERDAM, Zuid-Holland, Netherlands",51.92781489999999,4.4646944
"Baljuwstraat 2 , 3039AK, ROTTERDAM, Zuid-Holland, Netherlands",51.92781489999999,4.4646944
"Sportlaan 90 , 3078WR, ROTTERDAM, Zuid-Holland, Netherlands",51.8879865,4.5347819
"Sportlaan 90 , 3078WR, ROTTERDAM, Zuid-Holland, Netherlands",51.8879865,4.5347819
"Catullusweg 440 , 3076KH, ROTTERDAM, Zuid-Holland, Netherlands",51.8744331,4.5241652
"Rosestraat 1101 , 3071AL, ROTTERDAM, Zuid-Holland, Netherlands",51.9034135,4.5097593
"Rosestraat 1101 , 3071AL, ROTTERDAM, Zuid-Holland, Netherlands",51.9034135,4.5097593
"Breitnerstraat 92 -94, 3015XJ, ROTTERDAM, Zuid-Holland, Netherlands",51.9140753,4.467108200000001
"Albrandswaardsedijk 74 , 3172AA, POORTUGAAL, Zuid-Holland, Netherlands",51.84558999999999,4.3955605
"Albrandswaardsedijk 74 , 3172AA, POORTUGAAL, Zuid-Holland, Netherlands",51.84558999999999,4.3955605
"Burg Van Haarenlaan 1155 , 3118GC, SCHIEDAM, Zuid-Holland, Netherlands",51.9197442,4.383182
"De Vloot 207 , 3144PK, MAASSLUIS, Zuid-Holland, Netherlands",51.9304458,4.2422828
"De Vloot 61 67 68, 3144PC, MAASSLUIS, Zuid-Holland, Netherlands",51.929606,4.245204
"Karel Doormanstraat 19 , 3262PB, OUD-BEIJERLAND, Zuid-Holland, Netherlands",51.8238884,4.410747
"Schoolstraat 9 A, 3241CT, MIDDELHARNIS, Zuid-Holland, Netherlands",51.75889859999999,4.1618903
"Schoolstraat 9 A, 3241CT, MIDDELHARNIS, Zuid-Holland, Netherlands",51.75889859999999,4.1618903
"Schoolstraat 9 A, 3241CT, MIDDELHARNIS, Zuid-Holland, Netherlands",51.75889859999999,4.1618903
"Slingeplein 8 , 3085EZ, ROTTERDAM, Zuid-Holland, Netherlands",51.8724794,4.4899599
"Slingeplein 8 , 3085EZ, ROTTERDAM, Zuid-Holland, Netherlands",51.8724794,4.4899599
"Symfonielaan 9 , 3208SE, SPIJKENISSE, Zuid-Holland, Netherlands",51.8364984,4.307567000000001
"Weena 695 , 3013AM, ROTTERDAM, Zuid-Holland, Netherlands",51.9229072,4.4684047
"Van Speykstraat 5 A, 2901BB, CAPELLE AAN DEN IJSSEL, Zuid-Holland, Netherlands",51.9110329,4.5643563
"De Wetstraat 48 A, 2987AC, RIDDERKERK, Zuid-Holland, Netherlands",51.8968711,4.579083199999999
"Gordelweg 120 , 3037GT, ROTTERDAM, Zuid-Holland, Netherlands",51.93913,4.4683476
"Willem Beukelszoonstraat 62 , 3134LZ, VLAARDINGEN, Zuid-Holland, Netherlands",51.9082899,4.3533997
"Moriaanseweg West 2 , 3222AD, HELLEVOETSLUIS, Zuid-Holland, Netherlands",51.8378847,4.1290037
"Kastanjelaan 3 , 3241BH, MIDDELHARNIS, Zuid-Holland, Netherlands",51.7545858,4.1676145
"Lekstraat 2 , 3181EG, ROZENBURG ZH, Zuid-Holland, Netherlands",51.90097970000001,4.2532664
"Lekstraat 2 , 3181EG, ROZENBURG ZH, Zuid-Holland, Netherlands",51.90097970000001,4.2532664
"Nieuwstraat 15 , 3011GM, ROTTERDAM, Zuid-Holland, Netherlands",51.9197578,4.485460499999999
"Frankendaal 70 , 3075XS, ROTTERDAM, Zuid-Holland, Netherlands",51.8870557,4.5192555
"Elzendaal 27 , 3075LS, ROTTERDAM, Zuid-Holland, Netherlands",51.8901821,4.5184221
"Jasmijnstraat 4 , 2982CK, RIDDERKERK, Zuid-Holland, Netherlands",51.8726604,4.583989
"Westzeedijk 507 , 3024EL, ROTTERDAM, Zuid-Holland, Netherlands",51.9047642,4.4557869
"Koninginneweg 150 , 2982AP, RIDDERKERK, Zuid-Holland, Netherlands",51.8756536,4.5962572
"Bergsingel 132 , 3037GM, ROTTERDAM, Zuid-Holland, Netherlands",51.9361203,4.4705981
"Elsschotstraat 9 , 3076EA, ROTTERDAM, Zuid-Holland, Netherlands",51.8765168,4.5160889
"Rusthoflaan 56 , 3034XM, ROTTERDAM, Zuid-Holland, Netherlands",51.9354993,4.4961592
"Stoomtramweg 110 -112, 3071ZH, ROTTERDAM, Zuid-Holland, Netherlands",51.9046884,4.5083021
"Van Langendonckstraat 15 A, 3076SG, ROTTERDAM, Zuid-Holland, Netherlands",51.875808,4.515521
"Oostzeedijk 108 , 3063BG, ROTTERDAM, Zuid-Holland, Netherlands",51.9206999,4.509331599999999
"Haven Kloosternol 5 , 4322AK, SCHARENDIJKE, Zeeland, Netherlands",51.7380862,3.8525259
"Bananenstraat 5 -7, 3072NA, ROTTERDAM, Zuid-Holland, Netherlands",51.90199699999999,4.4949297
"Spinozaweg 400 , 3076ET, ROTTERDAM, Zuid-Holland, Netherlands",51.8763709,4.5135236
"Spinozaweg 400 , 3076ET, ROTTERDAM, Zuid-Holland, Netherlands",51.8763709,4.5135236
"Prins Alexanderlaan 41 , 3068PN, ROTTERDAM, Zuid-Holland, Netherlands",51.95216629999999,4.550694099999999
"Prins Alexanderlaan 41 , 3068PN, ROTTERDAM, Zuid-Holland, Netherlands",51.95216629999999,4.550694099999999
"Mathenesserlaan 321 , 3021HL, ROTTERDAM, Zuid-Holland, Netherlands",51.9141832,4.4563592
"Heijplaatstraat 21 , 3089JB, ROTTERDAM, Zuid-Holland, Netherlands",51.89654669999999,4.4204264
"RDM-kade 59 , 3089JR, ROTTERDAM, Zuid-Holland, Netherlands",51.8990903,4.4190817
"Drutenstraat 2 , 3087CC, ROTTERDAM, Zuid-Holland, Netherlands",51.8813739,4.4538897
"Drutenstraat 2 , 3087CC, ROTTERDAM, Zuid-Holland, Netherlands",51.8813739,4.4538897
"Ambachtsweg 17 , 3161GL, RHOON, Zuid-Holland, Netherlands",51.8604443,4.434404499999999
"Ambachtsweg 17 , 3161GL, RHOON, Zuid-Holland, Netherlands",51.8604443,4.434404499999999
"Professor Holwerdalaan 60 -62, 2672LD, NAALDWIJK, Zuid-Holland, Netherlands",51.9869591,4.2027711
"Europa 1 , 2672ZX, NAALDWIJK, Zuid-Holland, Netherlands",51.9933326,4.226564499999999
"Europa 1 , 2672ZX, NAALDWIJK, Zuid-Holland, Netherlands",51.9933326,4.226564499999999
"Van Graftstraat 10 , 3088GL, ROTTERDAM, Zuid-Holland, Netherlands",51.87432279999999,4.4467292
"Pieter de Hoochweg 222 , 3024BJ, ROTTERDAM, Zuid-Holland, Netherlands",51.9061009,4.4602911
"Pieter de Hoochweg 222 , 3024BJ, ROTTERDAM, Zuid-Holland, Netherlands",51.9061009,4.4602911
"Rosestraat 1103 , 3071AL, ROTTERDAM, Zuid-Holland, Netherlands",51.90227789999999,4.5102344
"Rosestraat 1103 , 3071AL, ROTTERDAM, Zuid-Holland, Netherlands",51.90227789999999,4.5102344
"Koningin Julianaweg 55 , 3241XB, MIDDELHARNIS, Zuid-Holland, Netherlands",51.75487889999999,4.1597162
"Koningin Julianaweg 55 , 3241XB, MIDDELHARNIS, Zuid-Holland, Netherlands",51.75487889999999,4.1597162
"Koningin Julianaweg 55 , 3241XB, MIDDELHARNIS, Zuid-Holland, Netherlands",51.75487889999999,4.1597162
"Stolwijkstraat 8 , 3079DN, ROTTERDAM, Zuid-Holland, Netherlands",51.878571,4.538659
"Stolwijkstraat 8 , 3079DN, ROTTERDAM, Zuid-Holland, Netherlands",51.878571,4.538659
"Fazantenlaan 1 a, 3222AM, HELLEVOETSLUIS, Zuid-Holland, Netherlands",51.8349256,4.1199186
"Fazantenlaan 1 c, 3222AM, HELLEVOETSLUIS, Zuid-Holland, Netherlands",51.8350293,4.120839999999999
"Fazantenlaan 1 c, 3222AM, HELLEVOETSLUIS, Zuid-Holland, Netherlands",51.8350293,4.120839999999999
"Fazantenlaan 1 c, 3222AM, HELLEVOETSLUIS, Zuid-Holland, Netherlands",51.8350293,4.120839999999999
"Van Zandvlietplein 20 , 3077AA, ROTTERDAM, Zuid-Holland, Netherlands",51.8938802,4.5263202
"Van Zandvlietplein 20 , 3077AA, ROTTERDAM, Zuid-Holland, Netherlands",51.8938802,4.5263202
"Thorbeckelaan 63 , 3201WJ, SPIJKENISSE, Zuid-Holland, Netherlands",51.8478982,4.3357405
"Thorbeckelaan 63 , 3201WJ, SPIJKENISSE, Zuid-Holland, Netherlands",51.8478982,4.3357405
"Thorbeckelaan 63 , 3201WJ, SPIJKENISSE, Zuid-Holland, Netherlands",51.8478982,4.3357405
"De Ritte 2 , 3201LE, SPIJKENISSE, Zuid-Holland, Netherlands",51.8462212,4.3220433
"De Ritte 2 , 3201LE, SPIJKENISSE, Zuid-Holland, Netherlands",51.8462212,4.3220433
"Dierensteinweg 2 , 2991XJ, BARENDRECHT, Zuid-Holland, Netherlands",51.86210819999999,4.5373977
"Dierensteinweg 4 , 2991XJ, BARENDRECHT, Zuid-Holland, Netherlands",51.862042,4.539046
"Koperstraat 19 , 3067GL, ROTTERDAM, Zuid-Holland, Netherlands",51.949971,4.5484776
"Langeweg 111 , 3245KG, SOMMELSDIJK, Zuid-Holland, Netherlands",51.7515413,4.1591645
"Lutonbaan 9 , 3045AZ, ROTTERDAM, Zuid-Holland, Netherlands",51.9510298,4.4443516
"Industrieweg 14 , 3133EE, VLAARDINGEN, Zuid-Holland, Netherlands",51.9018354,4.333549
"Prins Constantijnweg 30 , 3066TA, ROTTERDAM, Zuid-Holland, Netherlands",51.9353962,4.562234399999999
"Academielaan 9 , 5037ET, TILBURG, Noord-Brabant, Netherlands",51.5615922,5.0559199
"Ten Oeverstraat 68 , 8012EW, ZWOLLE, Overijssel, Netherlands",52.5061664,6.1072187
"Ten Oeverstraat 68 , 8012EW, ZWOLLE, Overijssel, Netherlands",52.5061664,6.1072187
"Paddepoelsterweg 15 , 9747AH, GRONINGEN, Groningen, Netherlands",53.2494786,6.531621899999999
"Havikstraat 5 , 6135ED, SITTARD, Limburg, Netherlands",51.0056115,5.845947499999999
"Dr. Ahausstraat 1 , 5042EK, TILBURG, Noord-Brabant, Netherlands",51.5701505,5.0644805
"Dr. Ahausstraat 1 , 5042EK, TILBURG, Noord-Brabant, Netherlands",51.5701505,5.0644805
"Waterloostraat 27 , 4826LW, BREDA, Noord-Brabant, Netherlands",51.6064642,4.779768499999999
"Meierijlaan 47 , 5628BC, EINDHOVEN, Noord-Brabant, Netherlands",51.4787565,5.458110899999999
"Hoflaan 113 , 3062JE, ROTTERDAM, Zuid-Holland, Netherlands",51.9206691,4.5144166
"Hoflaan 113 , 3062JE, ROTTERDAM, Zuid-Holland, Netherlands",51.9206691,4.5144166
"Hoflaan 113 , 3062JE, ROTTERDAM, Zuid-Holland, Netherlands",51.9206691,4.5144166
"Johan de Wittlaan 11 , 3445AG, WOERDEN, Utrecht, Netherlands",52.0873784,4.8940502
"Brinkwal 7 , 3432GA, NIEUWEGEIN, Utrecht, Netherlands",52.0276326,5.092105999999999
"Brinkwal 3 , 3432GA, NIEUWEGEIN, Utrecht, Netherlands",52.0272883,5.0919389
"Lange Viestraat 2 B, 3511BK, UTRECHT, Utrecht, Netherlands",52.0930692,5.1157635
"Lange Viestraat 2 B, 3511BK, UTRECHT, Utrecht, Netherlands",52.0930692,5.1157635
"Lange Viestraat 2 B, 3511BK, UTRECHT, Utrecht, Netherlands",52.0930692,5.1157635
"Nieuwekade 1 , 3511RV, UTRECHT, Utrecht, Netherlands",52.0957532,5.111538599999999
"Janskerkhof 18 , 3512BM, UTRECHT, Utrecht, Netherlands",52.0943076,5.1209262
"Mariaplaats 28 , 3511LL, UTRECHT, Utrecht, Netherlands",52.0892039,5.1173021
"Ina Boudier-Bakkerlaan 50 , 3582VA, UTRECHT, Utrecht, Netherlands",52.0804189,5.134768999999999
"Grote Spui 11 , 3811GA, AMERSFOORT, Utrecht, Netherlands",52.15850709999999,5.3861265
"Oude Amersfoortseweg 121 -131, 1212AA, HILVERSUM, Noord-Holland, Netherlands",52.2196369,5.1914921
"Fonteynenburghlaan 8 , 2275CX, VOORBURG, Zuid-Holland, Netherlands",52.061882,4.3525491
"Fonteynenburghlaan 8 , 2275CX, VOORBURG, Zuid-Holland, Netherlands",52.061882,4.3525491
"Houttuinlaan 6 , 3447GM, WOERDEN, Utrecht, Netherlands",52.0826535,4.8893263
"De Bleek 1 , 3447GV, WOERDEN, Utrecht, Netherlands",52.077794,4.888415999999999
"Spinozaweg 400 , 3076ET, ROTTERDAM, Zuid-Holland, Netherlands",51.8763709,4.5135236
"Spinozaweg 400 , 3076ET, ROTTERDAM, Zuid-Holland, Netherlands",51.8763709,4.5135236
"Spinozaweg 400 , 3076ET, ROTTERDAM, Zuid-Holland, Netherlands",51.8763709,4.5135236
"Velperweg 39 , 6824BG, ARNHEM, Gelderland, Netherlands",51.9875023,5.9264167
"Van Schuylenburgweg 3 , 6538LH, NIJMEGEN, Gelderland, Netherlands",51.81753630000001,5.7985875
"Schiedamseweg 245 , 3118JB, SCHIEDAM, Zuid-Holland, Netherlands",51.9238104,4.3838406
"Mgr. Nolenslaan 3 , 3119EA, SCHIEDAM, Zuid-Holland, Netherlands",51.922833,4.39399
"Schiedamseweg 245 , 3118JB, SCHIEDAM, Zuid-Holland, Netherlands",51.9238104,4.3838406
"Kaatstraat 1 47, 3513BK, UTRECHT, Utrecht, Netherlands",52.0982241,5.112299699999999
"Lageweg 10 , 3815VG, AMERSFOORT, Utrecht, Netherlands",52.16155380000001,5.4090776
"It Skutsje 27 , 9001HH, GROU, Friesland, Netherlands",53.08928849999999,5.8384186
"Steegstraat 16 , 6041EA, ROERMOND, Limburg, Netherlands",51.1972113,5.991468299999999
"Lomanlaan 103 , 3526XD, UTRECHT, Utrecht, Netherlands",52.0729489,5.1014795
"Boulevard 1945 350 , 7511AL, ENSCHEDE, Overijssel, Netherlands",52.2166091,6.9014839
"Hengelosestraat 99 , 7514AE, ENSCHEDE, Overijssel, Netherlands",52.2238418,6.8861225
"Hengelosestraat 99 , 7514AE, ENSCHEDE, Overijssel, Netherlands",52.2238418,6.8861225
"Stationsplein 10 , 2312AK, LEIDEN, Zuid-Holland, Netherlands",52.1660099,4.483878799999999
"Wassenaarseweg 52 , 2333AK, LEIDEN, Zuid-Holland, Netherlands",52.1696475,4.478066399999999
"Mathenesserlaan 235 , 3021HB, ROTTERDAM, Zuid-Holland, Netherlands",51.9148933,4.461702
"Churchillweg 68 , 6706AD, WAGENINGEN, Gelderland, Netherlands",51.9731645,5.672868299999999
"Churchillweg 68 , 6706AD, WAGENINGEN, Gelderland, Netherlands",51.9731645,5.672868299999999
"Mensinge 2 , 1083HA, AMSTERDAM, Noord-Holland, Netherlands",52.3326217,4.889107999999999
"Goudenregenstraat 1 , 7131ZV, LICHTENVOORDE, Gelderland, Netherlands",51.9826369,6.5613381
"Goudenregenstraat 1 , 7131ZV, LICHTENVOORDE, Gelderland, Netherlands",51.9826369,6.5613381
"Goudenregenstraat 1 , 7131ZV, LICHTENVOORDE, Gelderland, Netherlands",51.9826369,6.5613381
"Van Heemskerckstraat 75 , 9726GH, GRONINGEN, Groningen, Netherlands",53.2126336,6.545677
"Harmonielaan 2 , 3438EB, NIEUWEGEIN, Utrecht, Netherlands",52.0435188,5.0952018
"Koningin Emmalaan 13 , 4141EA, LEERDAM, Utrecht, Netherlands",51.8937625,5.0972916
"Harmonielaan 2 , 3438EB, NIEUWEGEIN, Utrecht, Netherlands",52.0435188,5.0952018
"Van Asch van Wijckskade 28 30, 3512VS, UTRECHT, Utrecht, Netherlands",52.0968724,5.1231184
"Dokterspad 2 , 8025AW, ZWOLLE, Overijssel, Netherlands",52.5147823,6.1254216
"Dokterspad 2 , 8025AW, ZWOLLE, Overijssel, Netherlands",52.5147823,6.1254216
"Dokterspad 2 , 8025AW, ZWOLLE, Overijssel, Netherlands",52.5147823,6.1254216
"Dokterspad 2 , 8025AW, ZWOLLE, Overijssel, Netherlands",52.5147823,6.1254216
"Dokterspad 2 , 8025AW, ZWOLLE, Overijssel, Netherlands",52.5147823,6.1254216
"Kennedylaan 2 , 8101AK, RAALTE, Overijssel, Netherlands",52.3884601,6.269519799999999
"Kennedylaan 2 , 8101AK, RAALTE, Overijssel, Netherlands",52.3884601,6.269519799999999
"Rieteweg 12 , 8041AK, ZWOLLE, Overijssel, Netherlands",52.5153426,6.0747091
"Rieteweg 12 , 8041AK, ZWOLLE, Overijssel, Netherlands",52.5153426,6.0747091
"Rieteweg 12 , 8041AK, ZWOLLE, Overijssel, Netherlands",52.5153426,6.0747091
"Rieteweg 12 , 8041AK, ZWOLLE, Overijssel, Netherlands",52.5153426,6.0747091
"Rieteweg 12 , 8041AK, ZWOLLE, Overijssel, Netherlands",52.5153426,6.0747091
"Blaloweg 1 , 8041AH, ZWOLLE, Overijssel, Netherlands",52.516811,6.080319299999999
"Fuchsiastraat 1 , 8013ZC, ZWOLLE, Overijssel, Netherlands",52.5039155,6.113769
"Fuchsiastraat 1 , 8013ZC, ZWOLLE, Overijssel, Netherlands",52.5039155,6.113769
"Fuchsiastraat 1 , 8013ZC, ZWOLLE, Overijssel, Netherlands",52.5039155,6.113769
"Fuchsiastraat 1 , 8013ZC, ZWOLLE, Overijssel, Netherlands",52.5039155,6.113769
"Fuchsiastraat 1 , 8013ZC, ZWOLLE, Overijssel, Netherlands",52.5039155,6.113769
"Fuchsiastraat 1 , 8013ZC, ZWOLLE, Overijssel, Netherlands",52.5039155,6.113769
"Assendorperdijk 55 , 8012EG, ZWOLLE, Overijssel, Netherlands",52.5049323,6.1111038
"Assendorperdijk 55 , 8012EG, ZWOLLE, Overijssel, Netherlands",52.5049323,6.1111038
"Assendorperdijk 55 , 8012EG, ZWOLLE, Overijssel, Netherlands",52.5049323,6.1111038
"Assendorperdijk 55 , 8012EG, ZWOLLE, Overijssel, Netherlands",52.5049323,6.1111038
"Assendorperdijk 55 , 8012EG, ZWOLLE, Overijssel, Netherlands",52.5049323,6.1111038
"Dokter van Deenweg 58 , 8025BC, ZWOLLE, Overijssel, Netherlands",52.5101133,6.1227208
"Dokter van Deenweg 58 , 8025BC, ZWOLLE, Overijssel, Netherlands",52.5101133,6.1227208
"Zwolsestraat 63 A, 8101AB, RAALTE, Overijssel, Netherlands",52.3943725,6.2674384
"Zwolsestraat 63 A, 8101AB, RAALTE, Overijssel, Netherlands",52.3943725,6.2674384
"Zwolsestraat 63 A, 8101AB, RAALTE, Overijssel, Netherlands",52.3943725,6.2674384
"Agnietenstraat 24 , 2801HX, GOUDA, Zuid-Holland, Netherlands",52.0142276,4.7110341
"Agnietenstraat 24 , 2801HX, GOUDA, Zuid-Holland, Netherlands",52.0142276,4.7110341
"Langewijk 180 , 7701AK, DEDEMSVAART, Overijssel, Netherlands",52.6062321,6.461880799999999
"Langewijk 180 , 7701AK, DEDEMSVAART, Overijssel, Netherlands",52.6062321,6.461880799999999
"Langewijk 180 , 7701AK, DEDEMSVAART, Overijssel, Netherlands",52.6062321,6.461880799999999
"Vaartweg 67 , 8243PD, LELYSTAD, Flevoland, Netherlands",52.5006432,5.4403685
"Vaartweg 67 , 8243PD, LELYSTAD, Flevoland, Netherlands",52.5006432,5.4403685
"Markeweg 25 -27, 8101XV, RAALTE, Overijssel, Netherlands",52.386941,6.2620771
"Markeweg 25 -27, 8101XV, RAALTE, Overijssel, Netherlands",52.386941,6.2620771
"Markeweg 25 -27, 8101XV, RAALTE, Overijssel, Netherlands",52.386941,6.2620771
"Hattemattestraat 3 , 7783BM, GRAMSBERGEN, Overijssel, Netherlands",52.6099422,6.6710068
"Hattemattestraat 3 , 7783BM, GRAMSBERGEN, Overijssel, Netherlands",52.6099422,6.6710068
"Hattemattestraat 3 , 7783BM, GRAMSBERGEN, Overijssel, Netherlands",52.6099422,6.6710068
"Burg Schuitestraat 5 , 7772BS, HARDENBERG, Overijssel, Netherlands",52.57040300000001,6.6234015
"Burg Schuitestraat 5 , 7772BS, HARDENBERG, Overijssel, Netherlands",52.57040300000001,6.6234015
"Chevalleraustraat 8 , 7731EE, OMMEN, Overijssel, Netherlands",52.52551700000001,6.4195796
"Van Reeuwijkstraat 5 , 7731EH, OMMEN, Overijssel, Netherlands",52.5261803,6.4193411
"Ruitenborghstraat 56 , 7721BE, DALFSEN, Overijssel, Netherlands",52.5060458,6.2519376
"Ruitenborghstraat 56 , 7721BE, DALFSEN, Overijssel, Netherlands",52.5060458,6.2519376
"Ruitenborghstraat 56 , 7721BE, DALFSEN, Overijssel, Netherlands",52.5060458,6.2519376
"Ampsenseweg 8 , 7241NB, LOCHEM, Gelderland, Netherlands",52.173303,6.400855399999999
"Ampsenseweg 8 , 7241NB, LOCHEM, Gelderland, Netherlands",52.173303,6.400855399999999
"Ampsenseweg 8 , 7241NB, LOCHEM, Gelderland, Netherlands",52.173303,6.400855399999999
"Plantsoen 73 , 7681XM, VROOMSHOOP, Overijssel, Netherlands",52.4560049,6.5587424
"Plantsoen 73 , 7681XM, VROOMSHOOP, Overijssel, Netherlands",52.4560049,6.5587424
"Plantsoen 73 , 7681XM, VROOMSHOOP, Overijssel, Netherlands",52.4560049,6.5587424
"Ericaweg 2 , 8072PV, NUNSPEET, Gelderland, Netherlands",52.3703482,5.7896117
"Ericaweg 2 , 8072PV, NUNSPEET, Gelderland, Netherlands",52.3703482,5.7896117
"Ericaweg 2 , 8072PV, NUNSPEET, Gelderland, Netherlands",52.3703482,5.7896117
"Koterhoek 29 , 8332CW, STEENWIJK, Overijssel, Netherlands",52.7915478,6.1340014
"Koterhoek 29 , 8332CW, STEENWIJK, Overijssel, Netherlands",52.7915478,6.1340014
"Het Hooiveld 9 , 8302AE, EMMELOORD, Flevoland, Netherlands",52.7276225,5.7661831
"Het Hooiveld 9 , 8302AE, EMMELOORD, Flevoland, Netherlands",52.7276225,5.7661831
"Grote Poot 21 , 7411KE, DEVENTER, Overijssel, Netherlands",52.25210020000001,6.1568254
"Grote Poot 21 , 7411KE, DEVENTER, Overijssel, Netherlands",52.25210020000001,6.1568254
"Riviervismarkt 2 , 2513AM, 'S-GRAVENHAGE, Zuid-Holland, Netherlands",52.0768269,4.3075095
"Riviervismarkt 2 , 2513AM, 'S-GRAVENHAGE, Zuid-Holland, Netherlands",52.0768269,4.3075095
"Vogelsanglaan 1 , 3571ZM, UTRECHT, Utrecht, Netherlands",52.1035044,5.1329535
"Vogelsanglaan 1 , 3571ZM, UTRECHT, Utrecht, Netherlands",52.1035044,5.1329535
"Vastertlanden 142 , 7542LE, ENSCHEDE, Overijssel, Netherlands",52.1948448,6.9029397
"Vastertlanden 142 , 7542LE, ENSCHEDE, Overijssel, Netherlands",52.1948448,6.9029397
"Rondweg 1 , 8262GK, KAMPEN, Overijssel, Netherlands",52.5583182,5.907873899999999
"Rondweg 1 , 8262GK, KAMPEN, Overijssel, Netherlands",52.5583182,5.907873899999999
"Gerard Doustraat 13 , 7944HD, MEPPEL, Drenthe, Netherlands",52.68906339999999,6.1825777
"Gerard Doustraat 13 , 7944HD, MEPPEL, Drenthe, Netherlands",52.68906339999999,6.1825777
"Westeinde 33 , 3844DD, HARDERWIJK, Gelderland, Netherlands",52.3396964,5.6193668
"Westeinde 33 , 3844DD, HARDERWIJK, Gelderland, Netherlands",52.3396964,5.6193668
"Westeinde 33 -37, 3844DD, HARDERWIJK, Gelderland, Netherlands",52.3396964,5.6193668
"Westeinde 33 -37, 3844DD, HARDERWIJK, Gelderland, Netherlands",52.3396964,5.6193668
"Westeinde 31 , 3844DD, HARDERWIJK, Gelderland, Netherlands",52.3401611,5.6182436
"Boerhaavestraat 50 , 7316JD, APELDOORN, Gelderland, Netherlands",52.2297989,5.9691943
"Boerhaavestraat 50 , 7316JD, APELDOORN, Gelderland, Netherlands",52.2297989,5.9691943
"Baander 23 , 7811HH, EMMEN, Drenthe, Netherlands",52.7814316,6.895855699999999
"Baander 23 , 7811HH, EMMEN, Drenthe, Netherlands",52.7814316,6.895855699999999
"Wilaarderburen 1 , 8924JK, LEEUWARDEN, Friesland, Netherlands",53.2035184,5.8340798
"Wilaarderburen 1 , 8924JK, LEEUWARDEN, Friesland, Netherlands",53.2035184,5.8340798
"Hereweg 99 , 9721AA, GRONINGEN, Groningen, Netherlands",53.203242,6.5740051
"Hereweg 99 , 9721AA, GRONINGEN, Groningen, Netherlands",53.203242,6.5740051
"1e Ebbingestraat 11 , 8261XC, KAMPEN, Overijssel, Netherlands",52.5521697,5.9202601
"1e Ebbingestraat 11 , 8261XC, KAMPEN, Overijssel, Netherlands",52.5521697,5.9202601
"Assendorperdijk 31 , 8012EG, ZWOLLE, Overijssel, Netherlands",52.506087,6.1057957
"Assendorperdijk 31 , 8012EG, ZWOLLE, Overijssel, Netherlands",52.506087,6.1057957
"Assendorperdijk 31 , 8012EG, ZWOLLE, Overijssel, Netherlands",52.506087,6.1057957
"Assendorperdijk 31 , 8012EG, ZWOLLE, Overijssel, Netherlands",52.506087,6.1057957
"Voorslag 11 , 8325XH, VOLLENHOVE, Overijssel, Netherlands",52.6793245,5.9460482
"Voorslag 11 , 8325XH, VOLLENHOVE, Overijssel, Netherlands",52.6793245,5.9460482
"Voorslag 11 , 8325XH, VOLLENHOVE, Overijssel, Netherlands",52.6793245,5.9460482
"Voorslag 11 , 8325XH, VOLLENHOVE, Overijssel, Netherlands",52.6793245,5.9460482
"Wheeme 8 , 8325AE, VOLLENHOVE, Overijssel, Netherlands",52.6791028,5.946473999999999
"Zerboltstraat 2 -1, 8022RX, ZWOLLE, Overijssel, Netherlands",52.5209059,6.1074774
"Ossenkamp 8 , 8024AE, ZWOLLE, Overijssel, Netherlands",52.5207484,6.121801100000001
"Raadhuisplein 4 , 3851NT, ERMELO, Gelderland, Netherlands",52.3006579,5.6175485
"F.A. Molijnlaan 166 , 8071AK, NUNSPEET, Gelderland, Netherlands",52.3809063,5.790002299999999
"F.A. Molijnlaan 186 , 8071AK, NUNSPEET, Gelderland, Netherlands",52.3830782,5.7897414
"Sparrenlaan 49 , 3862HB, NIJKERK, Gelderland, Netherlands",52.2200324,5.4960211
"Jac Catsstraat 74 , 3881XR, PUTTEN, Gelderland, Netherlands",52.25320139999999,5.6117227
"Ossenkamp 5 , 8024AG, ZWOLLE, Overijssel, Netherlands",52.524215,6.1218925
"dr.A.C.van Raaltestraat 23 , 7731GP, OMMEN, Overijssel, Netherlands",52.5208287,6.426215
"Markt 1 , 7701GV, DEDEMSVAART, Overijssel, Netherlands",52.5999895,6.4562349
"Gelijkheid 3 , 8014XC, ZWOLLE, Overijssel, Netherlands",52.4826908,6.1126954
"Gelijkheid 3 , 8014XC, ZWOLLE, Overijssel, Netherlands",52.4826908,6.1126954
"Schuurmanstraat 1 , 8011KC, ZWOLLE, Overijssel, Netherlands",52.5117369,6.100504099999999
"Strangeweg 25 , 7731GV, OMMEN, Overijssel, Netherlands",52.52589829999999,6.432987900000001
"Strangeweg 25 , 7731GV, OMMEN, Overijssel, Netherlands",52.52589829999999,6.432987900000001
"Stakenbergweg 8 , 8075RA, ELSPEET, Gelderland, Netherlands",52.2968738,5.7821943
"Van Reeuwijkstraat 1 , 7731EH, OMMEN, Overijssel, Netherlands",52.5272678,6.420828999999999
"Balkerweg 2 , 7731RZ, OMMEN, Overijssel, Netherlands",52.5284088,6.4203421
"Mecklenburglaan 3 , 3843BN, HARDERWIJK, Gelderland, Netherlands",52.3352397,5.6253934
"Agripark-Oost 2 , 8251KH, DRONTEN, Flevoland, Netherlands",52.52741,5.700355
"De Arend 4 , 8251GR, DRONTEN, Flevoland, Netherlands",52.53283949999999,5.7241478
"Het Ravelijn 1 , 8233BR, LELYSTAD, Flevoland, Netherlands",52.50472749999999,5.474179500000001
"Rieteweg 12 , 8041AK, ZWOLLE, Overijssel, Netherlands",52.5153426,6.0747091
"Westeinde 33 , 3844DD, HARDERWIJK, Gelderland, Netherlands",52.3396964,5.6193668
"Westeinde 100 , 3844DR, HARDERWIJK, Gelderland, Netherlands",52.3396303,5.617252199999999
"Ruigedoornstraat 108 , 7721BR, DALFSEN, Overijssel, Netherlands",52.5105972,6.253608499999999
"Parkweg 4 a, 3842AD, HARDERWIJK, Gelderland, Netherlands",52.3424589,5.6270378
"De Sypel 2 , 3842AE, HARDERWIJK, Gelderland, Netherlands",52.3416149,5.624164299999999
"Flevoweg 68 , 8265PL, KAMPEN, Overijssel, Netherlands",52.5548231,5.8878062
"Bouwstraat 23 , 7731CP, OMMEN, Overijssel, Netherlands",52.520078,6.424244
"Boterweg 5 , 8334NS, TUK, Overijssel, Netherlands",52.7931571,6.0976344
"Hanzeplein 11 , 8017JD, ZWOLLE, Overijssel, Netherlands",52.5032046,6.083680900000001
"Lubeckplein 68 , 8017JS, ZWOLLE, Overijssel, Netherlands",52.5032226,6.088864399999999
"Stadionplein 12 , 8025CP, ZWOLLE, Overijssel, Netherlands",52.5173458,6.1217688
"Florens Radewijnsstraat 6 , 8101BW, RAALTE, Overijssel, Netherlands",52.3916991,6.2664609
"Koningin Wilhelminastr 93 , 8019AL, ZWOLLE, Overijssel, Netherlands",52.5107319,6.076454099999999
"Hogeland 10 , 8024AZ, ZWOLLE, Overijssel, Netherlands",52.5216532,6.122941399999999
"Kruidenlaan 1 , 8082CA, ELBURG, Gelderland, Netherlands",52.4476977,5.8665315
"Blaloweg 1 , 8041AH, ZWOLLE, Overijssel, Netherlands",52.516811,6.080319299999999
"Campus 5 , 8017CB, ZWOLLE, Overijssel, Netherlands",52.4981836,6.081025599999999
"Rondweg 2 , 8064PA, ZWARTSLUIS, Overijssel, Netherlands",52.6393656,6.068460399999999
"Linderflier 24 , 7681ZM, VROOMSHOOP, Overijssel, Netherlands",52.45734950000001,6.5639294
"Marsweg 3 , 8013PD, ZWOLLE, Overijssel, Netherlands",52.5029291,6.120761099999999
"Coldenhovenseweg 13 , 6961EA, EERBEEK, Gelderland, Netherlands",52.1038773,6.0658966
"Stadsbrink 427 , 6707AE, WAGENINGEN, Gelderland, Netherlands",51.9700861,5.6684259
"Agro Business Park 10 , 6708PW, WAGENINGEN, Gelderland, Netherlands",51.9775399,5.647037999999999
"Horapark 6 , 6717LZ, EDE, Gelderland, Netherlands",52.0207,5.6764641
"Grote Haag 23 , 3811HH, AMERSFOORT, Utrecht, Netherlands",52.15269379999999,5.3876182
"Louwesweg 6 , 1066EC, AMSTERDAM, Noord-Holland, Netherlands",52.347947,4.825606
"Museumpark 40 , 3015CX, ROTTERDAM, Zuid-Holland, Netherlands",51.9134313,4.4684668
"Vaartweg 125 , 1217SN, HILVERSUM, Noord-Holland, Netherlands",52.2226751,5.1586677
"Vaartweg 125 , 1217SN, HILVERSUM, Noord-Holland, Netherlands",52.2226751,5.1586677
"Arena 301 , 1213NW, HILVERSUM, Noord-Holland, Netherlands",52.2154083,5.1880956
"Vaartweg 125 , 1217SN, HILVERSUM, Noord-Holland, Netherlands",52.2226751,5.1586677
"Vaartweg 125 , 1217SN, HILVERSUM, Noord-Holland, Netherlands",52.2226751,5.1586677
"Rembrandtlaan 30 , 1213BH, HILVERSUM, Noord-Holland, Netherlands",52.21725619999999,5.1772827
"Rembrandtlaan 30 , 1213BH, HILVERSUM, Noord-Holland, Netherlands",52.21725619999999,5.1772827
"Vaartweg 54 , 1217SV, HILVERSUM, Noord-Holland, Netherlands",52.2231472,5.1642559
"Vondellaan 30 , 3521GH, UTRECHT, Utrecht, Netherlands",52.0786116,5.1201248
"Arena 301 , 1213NW, HILVERSUM, Noord-Holland, Netherlands",52.2154083,5.1880956
"Brugstraat 35 , 4701LB, ROOSENDAAL, Noord-Brabant, Netherlands",51.5377282,4.4616464
"Brugstraat 35 , 4701LB, ROOSENDAAL, Noord-Brabant, Netherlands",51.5377282,4.4616464
"Ariensplein 2 , 7511JX, ENSCHEDE, Overijssel, Netherlands",52.2197117,6.887622599999999
"Gezellenlaan 14 , 7005AZ, DOETINCHEM, Gelderland, Netherlands",51.9533913,6.302245699999999
"Hoeflingweg 9 , 7241CJ, LOCHEM, Gelderland, Netherlands",52.1644994,6.403739799999999
"Gezellenlaan 16 , 7005AZ, DOETINCHEM, Gelderland, Netherlands",51.9526842,6.3029259
"Gezellenlaan 16 , 7005AZ, DOETINCHEM, Gelderland, Netherlands",51.9526842,6.3029259
"Haitsma Mulierweg 36 , 7101CB, WINTERSWIJK, Gelderland, Netherlands",51.9760046,6.7128871
"Wilhelminalaan 1 , 7204AB, ZUTPHEN, Gelderland, Netherlands",52.1434289,6.2053081
"Westeinde 94 , 2211XS, NOORDWIJKERHOUT, Zuid-Holland, Netherlands",52.244416,4.4559979
"Annevillelaan 101 , 4851CB, ULVENHOUT, Noord-Brabant, Netherlands",51.54371159999999,4.8202826
"Liesbosstraat 34 , 4813BE, BREDA, Noord-Brabant, Netherlands",51.5774726,4.7363715
"Plantsoen 73 , 7681XM, VROOMSHOOP, Overijssel, Netherlands",52.4560049,6.5587424
"Plantsoen 73 , 7681XM, VROOMSHOOP, Overijssel, Netherlands",52.4560049,6.5587424
"Plantsoen 73 , 7681XM, VROOMSHOOP, Overijssel, Netherlands",52.4560049,6.5587424
"Enschedesestraat 30 , 7481CR, HAAKSBERGEN, Overijssel, Netherlands",52.156025,6.7469272
"Waterstraat 33 , 7201HM, ZUTPHEN, Gelderland, Netherlands",52.1407404,6.1927467
"Nachtegaallaan 9 , 3722AA, BILTHOVEN, Utrecht, Netherlands",52.127215,5.205189499999999
"Ierlandlaan 6 , 2713HL, ZOETERMEER, Zuid-Holland, Netherlands",52.0594858,4.4826388
"Johan Wagenaarstraat 6 , 1443LS, PURMEREND, Noord-Holland, Netherlands",52.5054828,4.9671044
"Startbaan 10 , 1185XR, AMSTELVEEN, Noord-Holland, Netherlands",52.28674359999999,4.850355899999999
"Frederiksplein 1 , 1017XK, AMSTERDAM, Noord-Holland, Netherlands",52.3612622,4.8999587
"Benoordenhoutseweg 21 , 2596BA, 'S-GRAVENHAGE, Zuid-Holland, Netherlands",52.0886325,4.3215094
"Postbus 78022 , 1070LP, AMSTERDAM, Noord-Holland, Netherlands",52.3675734,4.9041389
"Straatweg 25 , 3621BG, BREUKELEN, Utrecht, Netherlands",52.163163,5.0090726
"Straatweg 25 , 3621BG, BREUKELEN, Utrecht, Netherlands",52.163163,5.0090726
"Straatweg 25 , 3621BG, BREUKELEN, Utrecht, Netherlands",52.163163,5.0090726
"Straatweg 25 , 3621BG, BREUKELEN, Utrecht, Netherlands",52.163163,5.0090726
"De Drieslag 1 , 8251JZ, DRONTEN, Flevoland, Netherlands",52.5288818,5.6984771
"De Drieslag 4 , 8251JZ, DRONTEN, Flevoland, Netherlands",52.5284513,5.6958138
"Zandlaan 27 , 6717LN, EDE, Gelderland, Netherlands",52.0186048,5.667609199999999
"Koningsweg 35 , 6816TG, ARNHEM, Gelderland, Netherlands",52.03541509999999,5.9071995
"Hereweg 101 , 9721AA, GRONINGEN, Groningen, Netherlands",53.2030293,6.574682399999999
"Hereweg 101 , 9721AA, GRONINGEN, Groningen, Netherlands",53.2030293,6.574682399999999
"Anne de Vriesstraat 70 , 9402NT, ASSEN, Drenthe, Netherlands",52.9998122,6.569585999999999
"Hereweg 99 , 9721AA, GRONINGEN, Groningen, Netherlands",53.203242,6.5740051
"Hereweg 99 , 9721AA, GRONINGEN, Groningen, Netherlands",53.203242,6.5740051
"Noordbargerstraat 75 , 7812AA, EMMEN, Drenthe, Netherlands",52.77451,6.8856303
"Noordbargerstraat 75 , 7812AA, EMMEN, Drenthe, Netherlands",52.77451,6.8856303
"Huizingsbrinkweg 9 , 7812BK, EMMEN, Drenthe, Netherlands",52.7724986,6.887332199999999
"Majoor van Swietenlaan 15 , 8382CE, FREDERIKSOORD, Drenthe, Netherlands",52.8426693,6.1856575
"Het Vledder 16 , 7941KK, MEPPEL, Drenthe, Netherlands",52.6963293,6.1977367
"Werkhorst 56 , 7944AV, MEPPEL, Drenthe, Netherlands",52.6818476,6.1910357
"Werkhorst 56 , 7944AV, MEPPEL, Drenthe, Netherlands",52.6818476,6.1910357
"Burg. J.G. Legroweg 33 , 9761TA, EELDE, Drenthe, Netherlands",53.1397822,6.5696176
"Burg. J.G. Legroweg 33 , 9761TA, EELDE, Drenthe, Netherlands",53.1397822,6.5696176
"Vredeveldseweg 55 , 9404CC, ASSEN, Drenthe, Netherlands",52.9891193,6.582190499999999
"Vredeveldseweg 55 , 9404CC, ASSEN, Drenthe, Netherlands",52.9891193,6.582190499999999
"P.C. Hooftlaan 1 , 9673GS, WINSCHOTEN, Groningen, Netherlands",53.138025,7.0396019
"Pompmolenlaan 7 , 3447GK, WOERDEN, Utrecht, Netherlands",52.07578239999999,4.8953942
"Randhoeve 2 , 3992XH, HOUTEN, Utrecht, Netherlands",52.03933560000001,5.1619812
"De Molen 94 , 3995AX, HOUTEN, Utrecht, Netherlands",52.0324561,5.1697953
"De Molen 94 , 3995AX, HOUTEN, Utrecht, Netherlands",52.0324561,5.1697953
"Chico Mendesring 825 , 3315WX, DORDRECHT, Zuid-Holland, Netherlands",51.8049499,4.7057905
"Groenezoom 398 , 3315LA, DORDRECHT, Zuid-Holland, Netherlands",51.80504939999999,4.704335500000001
"Groenezoom 398 , 3315LA, DORDRECHT, Zuid-Holland, Netherlands",51.80504939999999,4.704335500000001
"Huis te Landelaan 2 , 2283SG, RIJSWIJK ZH, Zuid-Holland, Netherlands",52.0463601,4.3145125
"Huis te Landelaan 2 , 2283SG, RIJSWIJK ZH, Zuid-Holland, Netherlands",52.0463601,4.3145125
"  , , , , Netherlands",52.132633,5.291265999999999
"Randhoeve 2 , 3992XH, HOUTEN, Utrecht, Netherlands",52.03933560000001,5.1619812
"Randhoeve 2 , 3992XH, HOUTEN, Utrecht, Netherlands",52.03933560000001,5.1619812
"  , , , , Netherlands",52.132633,5.291265999999999
"Linnaeuslaan 2 , 1431JV, AALSMEER, Noord-Holland, Netherlands",52.2618447,4.7655924
"Linnaeuslaan 2 , 1431JV, AALSMEER, Noord-Holland, Netherlands",52.2618447,4.7655924
"Merwedekanaal 8 , 4206BC, GORINCHEM, Zuid-Holland, Netherlands",51.8371887,4.975887999999999
"IJsbaan 455 , 4206VJ, GORINCHEM, Zuid-Holland, Netherlands",51.8452226,4.9845444
"W. de Vries Robbeweg 27 , 4206AK, GORINCHEM, Zuid-Holland, Netherlands",51.8368802,4.976592699999999
"Mollenburgseweg 82 , 4205NB, GORINCHEM, Zuid-Holland, Netherlands",51.8482894,4.967302
"Zijde 105 , 2771EV, BOSKOOP, Zuid-Holland, Netherlands",52.0760303,4.6456694
"Laan van Verhof 1 , 2231BZ, RIJNSBURG, Zuid-Holland, Netherlands",52.1879548,4.455577799999999
"Laan van Verhof 1 , 2231BZ, RIJNSBURG, Zuid-Holland, Netherlands",52.1879548,4.455577799999999
"Bosdreef 111 , 3062CA, ROTTERDAM, Zuid-Holland, Netherlands",51.93810209999999,4.5005489
"Laanslootseweg 1 , 3028HT, ROTTERDAM, Zuid-Holland, Netherlands",51.9179177,4.4272719
"Laanslootseweg 1 , 3028HT, ROTTERDAM, Zuid-Holland, Netherlands",51.9179177,4.4272719
"Archimedesplantsoen 87 , 1098JZ, AMSTERDAM, Noord-Holland, Netherlands",52.3533343,4.9452026
"De Boelelaan 1109 , 1081HV, AMSTERDAM, Noord-Holland, Netherlands",52.3345058,4.864919899999999
"Jan van Zutphenstraat 60 , 1069RS, AMSTERDAM, Noord-Holland, Netherlands",52.3496263,4.7955154
"Rotterdamseweg 141 , 2628AL, DELFT, Zuid-Holland, Netherlands",52.0001952,4.3689374
"Ronsseweg 555 , 2803ZK, GOUDA, Zuid-Holland, Netherlands",52.01931279999999,4.7034502
"Ronsseweg 555 , 2803ZK, GOUDA, Zuid-Holland, Netherlands",52.01931279999999,4.7034502
"Burg Roozeveld vd Venln 7 , 4191PL, GELDERMALSEN, Gelderland, Netherlands",51.8785563,5.271103699999999
"Energieweg 19 , 6541CW, NIJMEGEN, Gelderland, Netherlands",51.8463528,5.8289576
"Larensteinselaan 26 b, 6882CT, VELP GLD, Gelderland, Netherlands",51.9932035,5.9602129
"Vlijmenseweg 1 a, 5223GW, 'S-HERTOGENBOSCH, Noord-Brabant, Netherlands",51.6861228,5.2833861
"Scheepsboulevard 1 , 5705KZ, HELMOND, Noord-Brabant, Netherlands",51.4699886,5.6616719
"Loudonstraat 2 , 5018GE, TILBURG, Noord-Brabant, Netherlands",51.5597941,5.1055133
"Schouwrooij 2 , 5281RE, BOXTEL, Noord-Brabant, Netherlands",51.5850795,5.3093281
"Geusseltweg 45 c, 6225XS, MAASTRICHT, Limburg, Netherlands",50.8578608,5.717358099999999
"Johan de Wittlaan 13 , 3445AG, WOERDEN, Utrecht, Netherlands",52.087596,4.894808299999999
"Wassenaarseweg 16 , 2596CH, 'S-GRAVENHAGE, Zuid-Holland, Netherlands",52.09066379999999,4.3133965
"Van Der Muydenstraat 19 , 5652NE, EINDHOVEN, Noord-Brabant, Netherlands",51.4433928,5.4393284
"Prof Cobbenhagenlaan 125 , 5037DB, TILBURG, Noord-Brabant, Netherlands",51.56192619999999,5.0513807
"Dam 31 , 4331GE, MIDDELBURG, Zeeland, Netherlands",51.5009478,3.6179193
"Edisonweg 4 , 4382NW, VLISSINGEN, Zeeland, Netherlands",51.4497716,3.5892298
"Campus 2 -4, 8017CA, ZWOLLE, Overijssel, Netherlands",52.4998414,6.0805269
"Campus 2 -4, 8017CA, ZWOLLE, Overijssel, Netherlands",52.4998414,6.0805269
"Campus 2 -6, 8017CA, ZWOLLE, Overijssel, Netherlands",52.4998414,6.0805269
"Campus 2 -6, 8017CA, ZWOLLE, Overijssel, Netherlands",52.4998414,6.0805269
"Campus 2 -6, 8017CA, ZWOLLE, Overijssel, Netherlands",52.4998414,6.0805269
"Beemd 10 , 4816HB, BREDA, Noord-Brabant, Netherlands",51.60114979999999,4.797168999999999
"Beemd 10 , 4816HB, BREDA, Noord-Brabant, Netherlands",51.60114979999999,4.797168999999999
"Fred. Roeskestraat 96 , 1076ED, AMSTERDAM, Noord-Holland, Netherlands",52.3413107,4.8598037
"Fred. Roeskestraat 96 , 1076ED, AMSTERDAM, Noord-Holland, Netherlands",52.3413107,4.8598037
"Roessinghsbleekweg 155 , 7522AH, ENSCHEDE, Overijssel, Netherlands",52.2329538,6.880155599999999
"Roessinghsbleekweg 155 , 7522AH, ENSCHEDE, Overijssel, Netherlands",52.2329538,6.880155599999999
"Borneostraat 16 -22, 7512AK, ENSCHEDE, Overijssel, Netherlands",52.21465269999999,6.893205699999999
"Twekkelerweg 124 , 7547RN, ENSCHEDE, Overijssel, Netherlands",52.2293652,6.825142199999999
"Buys-Ballotlaan 25 , 3132SC, VLAARDINGEN, Zuid-Holland, Netherlands",51.9114826,4.3119939
"Buys-Ballotlaan 25 , 3132SC, VLAARDINGEN, Zuid-Holland, Netherlands",51.9114826,4.3119939
"Willem Beukelszoonstraat 62 , 3134LZ, VLAARDINGEN, Zuid-Holland, Netherlands",51.9082899,4.3533997
"Willem Beukelszoonstraat 62 , 3134LZ, VLAARDINGEN, Zuid-Holland, Netherlands",51.9082899,4.3533997
"Buys-Ballotlaan 25 , 3132SC, VLAARDINGEN, Zuid-Holland, Netherlands",51.9114826,4.3119939
"Buys-Ballotlaan 25 , 3132SC, VLAARDINGEN, Zuid-Holland, Netherlands",51.9114826,4.3119939
"Brouwerijstraat 1 , 3142GA, MAASSLUIS, Zuid-Holland, Netherlands",51.9241231,4.2609899
"Burg Van Haarenlaan 952 , 3118GL, SCHIEDAM, Zuid-Holland, Netherlands",51.92043899999999,4.382090499999999
"Druivenstraat 1 , 2671SC, NAALDWIJK, Zuid-Holland, Netherlands",51.988862,4.219315
"Bisonspoor 3000 , 3605LT, MAARSSEN, Utrecht, Netherlands",52.13509209999999,5.0300417
"Bisonspoor 3000 , 3605LT, MAARSSEN, Utrecht, Netherlands",52.13509209999999,5.0300417
"Hoofdstraat 78 , 3972LB, DRIEBERGEN-RIJSENBURG, Utrecht, Netherlands",52.0585996,5.2707308
"Hoofdstraat 78 , 3972LB, DRIEBERGEN-RIJSENBURG, Utrecht, Netherlands",52.0585996,5.2707308
"Driebergsestraatweg 11 , 3941ZW, DOORN, Utrecht, Netherlands",52.03502530000001,5.3256519
"Driebergsestraatweg 11 , 3941ZW, DOORN, Utrecht, Netherlands",52.03502530000001,5.3256519
"Steekterweg 78 , 2407BH, ALPHEN AAN DEN RIJN, Zuid-Holland, Netherlands",52.1127798,4.707527799999999
"Treubstraat 17 , 2288EH, RIJSWIJK ZH, Zuid-Holland, Netherlands",52.0412998,4.3303845
"Fonteynenburghlaan 8 , 2275CX, VOORBURG, Zuid-Holland, Netherlands",52.061882,4.3525491
"Fonteynenburghlaan 8 , 2275CX, VOORBURG, Zuid-Holland, Netherlands",52.061882,4.3525491
"Fonteynenburghlaan 8 , 2275CX, VOORBURG, Zuid-Holland, Netherlands",52.061882,4.3525491
"Fonteynenburghlaan 8 , 2275CX, VOORBURG, Zuid-Holland, Netherlands",52.061882,4.3525491
"Bredeweg 235 , 6042GE, ROERMOND, Limburg, Netherlands",51.194171,6.0039648
"Bredeweg 235 , 6042GE, ROERMOND, Limburg, Netherlands",51.194171,6.0039648
"Jeruzalemweg 1 , 6222NG, MAASTRICHT, Limburg, Netherlands",50.8693143,5.7122106
"Dokter Hengeveldweg 2 , 8025AK, ZWOLLE, Overijssel, Netherlands",52.51078829999999,6.1269008
"Dokter Hengeveldweg 2 , 8025AK, ZWOLLE, Overijssel, Netherlands",52.51078829999999,6.1269008
"Grote Beemd 24 , 5281CD, BOXTEL, Noord-Brabant, Netherlands",51.5860368,5.3272726
"Grote Beemd 24 , 5281CD, BOXTEL, Noord-Brabant, Netherlands",51.5860368,5.3272726
"Grote Beemd 24 , 5281CD, BOXTEL, Noord-Brabant, Netherlands",51.5860368,5.3272726
"Burgakker 17 , 5281CH, BOXTEL, Noord-Brabant, Netherlands",51.5867219,5.325764599999999
"Burgakker 17 , 5281CH, BOXTEL, Noord-Brabant, Netherlands",51.5867219,5.325764599999999
"Burgakker 17 , 5281CH, BOXTEL, Noord-Brabant, Netherlands",51.5867219,5.325764599999999
"Grote Beemd 24 , 5281CD, BOXTEL, Noord-Brabant, Netherlands",51.5860368,5.3272726
"Burgakker 17 , 5281CH, BOXTEL, Noord-Brabant, Netherlands",51.5867219,5.325764599999999
"Mgr. Hopmansstraat 15 , 4817JT, BREDA, Noord-Brabant, Netherlands",51.5895819,4.795512899999999
"Wilhelminasingel 33 , 4817JX, BREDA, Noord-Brabant, Netherlands",51.589698,4.7895143
"Mgr. Hopmansstraat 15 , 4817JT, BREDA, Noord-Brabant, Netherlands",51.5895819,4.795512899999999
"Wilhelminasingel 33 , 4817JX, BREDA, Noord-Brabant, Netherlands",51.589698,4.7895143
"Horstlaan 2 , 3971LC, DRIEBERGEN-RIJSENBURG, Utrecht, Netherlands",52.048899,5.2973909
"Horstlaan 2 , 3971LC, DRIEBERGEN-RIJSENBURG, Utrecht, Netherlands",52.048899,5.2973909
"Horstlaan 2 , 3971LC, DRIEBERGEN-RIJSENBURG, Utrecht, Netherlands",52.048899,5.2973909
"Molenweg 1 , 1608EC, WIJDENES, Noord-Holland, Netherlands",52.6414827,5.168404499999999
"Molenweg 1 , 1608EC, WIJDENES, Noord-Holland, Netherlands",52.6414827,5.168404499999999
"Lange Kleiweg 4 , 2288GK, RIJSWIJK ZH, Zuid-Holland, Netherlands",52.0373449,4.3249306
"Lange Kleiweg 4 , 2288GK, RIJSWIJK ZH, Zuid-Holland, Netherlands",52.0373449,4.3249306
"Lange Kleiweg 80 , 2288GK, RIJSWIJK ZH, Zuid-Holland, Netherlands",52.0337425,4.3295637
"Brusselselaan 2 , 2587AH, 'S-GRAVENHAGE, Zuid-Holland, Netherlands",52.1078907,4.2926373
"Brusselselaan 2 , 2587AH, 'S-GRAVENHAGE, Zuid-Holland, Netherlands",52.1078907,4.2926373
"Elzentlaan 20 , 5611LN, EINDHOVEN, Noord-Brabant, Netherlands",51.4312105,5.481560399999999
"Elzentlaan 20 , 5611LN, EINDHOVEN, Noord-Brabant, Netherlands",51.4312105,5.481560399999999
"Emmasingel 14 , 5611AZ, EINDHOVEN, Noord-Brabant, Netherlands",51.4397665,5.4749092
"Emmasingel 14 , 5611AZ, EINDHOVEN, Noord-Brabant, Netherlands",51.4397665,5.4749092
"Emmasingel 14 , 5611AZ, EINDHOVEN, Noord-Brabant, Netherlands",51.4397665,5.4749092
"Nieuwsteeg 18 , 2311SB, LEIDEN, Zuid-Holland, Netherlands",52.1565635,4.4891434
"Einsteinweg 61 , 2333CC, LEIDEN, Zuid-Holland, Netherlands",52.1678141,4.458154
"Einsteinweg 61 , 2333CC, LEIDEN, Zuid-Holland, Netherlands",52.1678141,4.458154
"Nieuwsteeg 18 , 2311SB, LEIDEN, Zuid-Holland, Netherlands",52.1565635,4.4891434
"  , , , , Netherlands",52.132633,5.291265999999999
"Erasmuspad 10 , 3052KP, ROTTERDAM, Zuid-Holland, Netherlands",51.947996,4.4661137
"Erasmuspad 10 , 3052KP, ROTTERDAM, Zuid-Holland, Netherlands",51.947996,4.4661137
"Arlandaweg 173 , 1043HR, AMSTERDAM, Noord-Holland, Netherlands",52.3862554,4.8405805
"Arlandaweg 173 , 1043HR, AMSTERDAM, Noord-Holland, Netherlands",52.3862554,4.8405805
"Erasmuspad 10 , 3052KP, ROTTERDAM, Zuid-Holland, Netherlands",51.947996,4.4661137
"Erasmuspad 10 , 3052KP, ROTTERDAM, Zuid-Holland, Netherlands",51.947996,4.4661137
"Erasmuspad 10 , 3052KP, ROTTERDAM, Zuid-Holland, Netherlands",51.947996,4.4661137
"Van Oldenbarneveldtstr 56 , 1052KC, AMSTERDAM, Noord-Holland, Netherlands",52.37520550000001,4.874350400000001
"Van Oldenbarneveldtstr 56 , 1052KC, AMSTERDAM, Noord-Holland, Netherlands",52.37520550000001,4.874350400000001
"Smijerslaan 2 , 3572LP, UTRECHT, Utrecht, Netherlands",52.1008286,5.1409242
"Smijerslaan 2 , 3572LP, UTRECHT, Utrecht, Netherlands",52.1008286,5.1409242
"Smijerslaan 2 , 3572LP, UTRECHT, Utrecht, Netherlands",52.1008286,5.1409242
"Smijerslaan 2 , 3572LP, UTRECHT, Utrecht, Netherlands",52.1008286,5.1409242
"Zwartewaterallee 10 , 8031DX, ZWOLLE, Overijssel, Netherlands",52.520945,6.0883058
"Zwartewaterallee 10 , 8031DX, ZWOLLE, Overijssel, Netherlands",52.520945,6.0883058
"Nijverheidstraat 11 , 8031DZ, ZWOLLE, Overijssel, Netherlands",52.5209457,6.0889675
"Zwartewaterallee 10 , 8031DX, ZWOLLE, Overijssel, Netherlands",52.520945,6.0883058
"Zwartewaterallee 10 , 8031DX, ZWOLLE, Overijssel, Netherlands",52.520945,6.0883058
"Esdoornstraat 3 , 8021WB, ZWOLLE, Overijssel, Netherlands",52.5208156,6.0941356
"Burgemeester Elsenlaan 241 , 2282NE, RIJSWIJK ZH, Zuid-Holland, Netherlands",52.0486955,4.3312772
"Ganzerikplein 13 , 3053EA, ROTTERDAM, Zuid-Holland, Netherlands",51.9591234,4.4720016
"Ganzerikplein 13 , 3053EA, ROTTERDAM, Zuid-Holland, Netherlands",51.9591234,4.4720016
"Oliemolenstraat 60 , 6416CB, HEERLEN, Limburg, Netherlands",50.8845965,5.9913693
"Heidelberglaan 2 , 3584CS, UTRECHT, Utrecht, Netherlands",52.0856523,5.1791635
"Heidelberglaan 2 , 3584CS, UTRECHT, Utrecht, Netherlands",52.0856523,5.1791635
"De Boelelaan 1105 , 1081HV, AMSTERDAM, Noord-Holland, Netherlands",52.33426710000001,4.8669632
"Singel 450 , 1017AV, AMSTERDAM, Noord-Holland, Netherlands",52.36774699999999,4.888547099999999
"Wildenborch 6 , 1112XB, DIEMEN, Noord-Holland, Netherlands",52.3269497,4.9622724
"Wildenborch 6 , 1112XB, DIEMEN, Noord-Holland, Netherlands",52.3269497,4.9622724
"Spirea 3 , 3317JP, DORDRECHT, Zuid-Holland, Netherlands",51.79168379999999,4.6708885
"Hereweg 99 , 9721AA, GRONINGEN, Groningen, Netherlands",53.203242,6.5740051
"President Kennedysingel 18 , 6137AC, SITTARD, Limburg, Netherlands",50.9972916,5.8761322
"Arendstraat 12 , 6135KT, SITTARD, Limburg, Netherlands",51.0031668,5.8499229
"Arendstraat 12 , 6135KT, SITTARD, Limburg, Netherlands",51.0031668,5.8499229
"President Kennedysingel 18 , 6137AC, SITTARD, Limburg, Netherlands",50.9972916,5.8761322
"Arendstraat 12 , 6135KT, SITTARD, Limburg, Netherlands",51.0031668,5.8499229
"Arendstraat 12 , 6135KT, SITTARD, Limburg, Netherlands",51.0031668,5.8499229
"Jan Ligthartstraat 4 , 1817MR, ALKMAAR, Noord-Holland, Netherlands",52.64411459999999,4.7252242
"Jan Ligthartstraat 4 , 1817MR, ALKMAAR, Noord-Holland, Netherlands",52.64411459999999,4.7252242
"Bergerweg 200 , 1817MN, ALKMAAR, Noord-Holland, Netherlands",52.6418792,4.725219099999999
"Bergerweg 200 , 1817MN, ALKMAAR, Noord-Holland, Netherlands",52.6418792,4.725219099999999
"Robonsbosweg 3 , 1816MK, ALKMAAR, Noord-Holland, Netherlands",52.639944,4.723052
"Robonsbosweg 3 , 1816MK, ALKMAAR, Noord-Holland, Netherlands",52.639944,4.723052
"Nassauplein 11 , 1815GM, ALKMAAR, Noord-Holland, Netherlands",52.6320375,4.7361396
"Costerstraat 26 , 1814DH, ALKMAAR, Noord-Holland, Netherlands",52.6262475,4.7421221
"Van Everdingenstraat 18 , 1814HA, ALKMAAR, Noord-Holland, Netherlands",52.6253344,4.7410913
"Burg Palingstraat 6 , 1814HE, ALKMAAR, Noord-Holland, Netherlands",52.62412680000001,4.7389845
"Oude Kerkweg 100 , 6717JS, EDE, Gelderland, Netherlands",52.019775,5.663603
"Burg Schuitestraat 5 , 7772BS, HARDENBERG, Overijssel, Netherlands",52.57040300000001,6.6234015
"Watermolenlaan 4 , 3447GT, WOERDEN, Utrecht, Netherlands",52.0807764,4.8893932
"Socrateslaan 22 A, 3707GL, ZEIST, Utrecht, Netherlands",52.0990195,5.260627599999999
"Socrateslaan 22 A, 3707GL, ZEIST, Utrecht, Netherlands",52.0990195,5.260627599999999
"Socrateslaan 22 A, 3707GL, ZEIST, Utrecht, Netherlands",52.0990195,5.260627599999999
"Bachstraat 1 , 4003KZ, TIEL, Gelderland, Netherlands",51.8865873,5.413677600000001
"Bachstraat 1 , 4003KZ, TIEL, Gelderland, Netherlands",51.8865873,5.413677600000001
"Bachstraat 1 , 4003KZ, TIEL, Gelderland, Netherlands",51.8865873,5.413677600000001
"Bachstraat 1 , 4003KZ, TIEL, Gelderland, Netherlands",51.8865873,5.413677600000001
"Bachstraat 1 , 4003KZ, TIEL, Gelderland, Netherlands",51.8865873,5.413677600000001
"Daver 28 , 4012BC, KERK-AVEZAATH, Gelderland, Netherlands",51.8963407,5.3826113
"Daver 28 , 4012BC, KERK-AVEZAATH, Gelderland, Netherlands",51.8963407,5.3826113
"Franklinstraat 1 , 4004JK, TIEL, Gelderland, Netherlands",51.9031186,5.4335406
"Voor de Kijkuit 5 , 4001HG, TIEL, Gelderland, Netherlands",51.8903124,5.4316325
"Voor de Kijkuit 5 , 4001HG, TIEL, Gelderland, Netherlands",51.8903124,5.4316325
"Veerstraat 14 , 6651AX, DRUTEN, Gelderland, Netherlands",51.8935814,5.6078901
"Leliestraat 1 , 4191KA, GELDERMALSEN, Gelderland, Netherlands",51.8790693,5.2772527
"Oudenhof 3 , 4191NW, GELDERMALSEN, Gelderland, Netherlands",51.8792206,5.275494600000001
"Vliegerweg 2 , 4101JL, CULEMBORG, Gelderland, Netherlands",51.9562945,5.2355129
"Van Heemstraweg 38 A, 6658KH, BENEDEN-LEEUWEN, Gelderland, Netherlands",51.8798196,5.5262318
"Nieuwstraat 2 A, 5301EW, ZALTBOMMEL, Gelderland, Netherlands",51.8115205,5.2507183
"Teisterbantlaan 2 , 4006EB, TIEL, Gelderland, Netherlands",51.88201609999999,5.4188735
"Teisterbantlaan 1 a, 4001TJ, TIEL, Gelderland, Netherlands",51.88437709999999,5.419919
"Teisterbantlaan 1 a, 4001TJ, TIEL, Gelderland, Netherlands",51.88437709999999,5.419919
"Pa Hoeklaan 25 , 6651TE, DRUTEN, Gelderland, Netherlands",51.8936106,5.5985695
"Van Heemstraweg 53 a, 6651KH, DRUTEN, Gelderland, Netherlands",51.8863304,5.6022612
"Oude Bosscheweg 2 , 5301LA, ZALTBOMMEL, Gelderland, Netherlands",51.8047052,5.2554247
"Franklinstraat 1 , 4004JK, TIEL, Gelderland, Netherlands",51.9031186,5.4335406
"Oude Bosscheweg 2 , 5301LA, ZALTBOMMEL, Gelderland, Netherlands",51.8047052,5.2554247
"Poppenbouwing 3 b, 4191NZ, GELDERMALSEN, Gelderland, Netherlands",51.8752498,5.3126692
"Poppenbouwing 3 b, 4191NZ, GELDERMALSEN, Gelderland, Netherlands",51.8752498,5.3126692
"Oudenhof 3 , 4191NW, GELDERMALSEN, Gelderland, Netherlands",51.8792206,5.275494600000001
"Oudenhof 3 , 4191NW, GELDERMALSEN, Gelderland, Netherlands",51.8792206,5.275494600000001
"Vliegerweg 2 , 4101JL, CULEMBORG, Gelderland, Netherlands",51.9562945,5.2355129
"Heimanslaan 2 , 4102JA, CULEMBORG, Gelderland, Netherlands",51.9539061,5.244729200000001
"Bontekoelaan 1 , 3526RA, UTRECHT, Utrecht, Netherlands",52.067308,5.0957338
"Bontekoelaan 1 , 3526RA, UTRECHT, Utrecht, Netherlands",52.067308,5.0957338
"Columbuslaan 540 , 3526EP, UTRECHT, Utrecht, Netherlands",52.0637824,5.100102100000001
"Columbuslaan 540 , 3526EP, UTRECHT, Utrecht, Netherlands",52.0637824,5.100102100000001
"Leusderweg 30 , 3817KB, AMERSFOORT, Utrecht, Netherlands",52.148039,5.383767
"Leusderweg 30 , 3817KB, AMERSFOORT, Utrecht, Netherlands",52.148039,5.383767
"Leusderweg 30 -34, 3817KB, AMERSFOORT, Utrecht, Netherlands",52.148039,5.383767
"Matthijs Vermeulenstraat 1 , 3816DC, AMERSFOORT, Utrecht, Netherlands",52.15622320000001,5.399412799999999
"Matthijs Vermeulenstraat 1 , 3816DC, AMERSFOORT, Utrecht, Netherlands",52.15622320000001,5.399412799999999
"Dongestraat 12 , 1078JW, AMSTERDAM, Noord-Holland, Netherlands",52.3451919,4.8938082
"Dongestraat 12 , 1078JW, AMSTERDAM, Noord-Holland, Netherlands",52.3451919,4.8938082
"Dongestraat 8 , 1078JW, AMSTERDAM, Noord-Holland, Netherlands",52.3455577,4.8937908
"Clarenburg 1 , 3834BC, LEUSDEN, Utrecht, Netherlands",52.1276406,5.4297957
"Clarenburg 1 , 3834BC, LEUSDEN, Utrecht, Netherlands",52.1276406,5.4297957
"Lutmastraat 181 -183, 1073GX, AMSTERDAM, Noord-Holland, Netherlands",52.3517009,4.9026763
"Lutmastraat 181 -183, 1073GX, AMSTERDAM, Noord-Holland, Netherlands",52.3517009,4.9026763
"Tesselschadelaan 1 , 3842GA, HARDERWIJK, Gelderland, Netherlands",52.3438149,5.6370716
"Nijverheidsweg-Noord 130 , 3812PN, AMERSFOORT, Utrecht, Netherlands",52.1703059,5.349522299999999
"Brinkwal 7 , 3432GA, NIEUWEGEIN, Utrecht, Netherlands",52.0276326,5.092105999999999
"St.-Laurensdreef 22 , 3565AK, UTRECHT, Utrecht, Netherlands",52.1275166,5.0887797
"Vlaardingenlaan 25 , 1062HM, AMSTERDAM, Noord-Holland, Netherlands",52.3462968,4.8353888
"'s-Gravendamseweg 16 c, 2211WJ, NOORDWIJKERHOUT, Zuid-Holland, Netherlands",52.248879,4.488206
"Europalaan 89 , 3526KP, UTRECHT, Utrecht, Netherlands",52.065126,5.106670299999999
"Azielaan 151 , 3526SG, UTRECHT, Utrecht, Netherlands",52.0653799,5.106169
"Pagelaan 1 , 3525GW, UTRECHT, Utrecht, Netherlands",52.060119,5.115667
"Ariana Nozemanstraat 2 , 1065TS, AMSTERDAM, Noord-Holland, Netherlands",52.35560839999999,4.8316459
"Vrolikstraat 8 , 1091VG, AMSTERDAM, Noord-Holland, Netherlands",52.3550795,4.912351000000001
"Wibautstraat 131 , 1091GL, AMSTERDAM, Noord-Holland, Netherlands",52.3540736,4.913047
"Prins Hendrikstraat 5 , 3751CT, BUNSCHOTEN-SPAKENBURG, Utrecht, Netherlands",52.2454906,5.3763649
"Regentesselaan 14 , 3818HJ, AMERSFOORT, Utrecht, Netherlands",52.1507368,5.374006
"Zangvogelweg 4 , 3815DL, AMERSFOORT, Utrecht, Netherlands",52.1613435,5.405654699999999
"Berlagelaan 1 , 2033XS, HAARLEM, Noord-Holland, Netherlands",52.380882,4.6621467
"Schipholpoort 60 , 2034MB, HAARLEM, Noord-Holland, Netherlands",52.3697124,4.6434634
"Uiterwaardenstraat 263 , 1079CR, AMSTERDAM, Noord-Holland, Netherlands",52.3414522,4.8966541
"Rode Kruisstraat 14 , 1025KN, AMSTERDAM, Noord-Holland, Netherlands",52.3948247,4.931105100000001
"Australielaan 23 -25, 3526AB, UTRECHT, Utrecht, Netherlands",52.0646224,5.102204599999999
"Dr Jan van Breemenstraat 1 , 1056AB, AMSTERDAM, Noord-Holland, Netherlands",52.37085099999999,4.843855599999999
"Vd Sande Bakhuijzenstr 4 , 1061AG, AMSTERDAM, Noord-Holland, Netherlands",52.3721517,4.8360845
"De Klencke 4 -6, 1083HH, AMSTERDAM, Noord-Holland, Netherlands",52.3340561,4.8867426
"Churchillweg 43 -45, 6707JB, WAGENINGEN, Gelderland, Netherlands",51.9734862,5.6716478
"Printerweg 43 , 3821AP, AMERSFOORT, Utrecht, Netherlands",52.176768,5.4097471
"Bernissestraat 2 , 1079ZW, AMSTERDAM, Noord-Holland, Netherlands",52.3425303,4.8982654
"Heiligeweg 45 , 1012XP, AMSTERDAM, Noord-Holland, Netherlands",52.3674958,4.8905953
"Kamp 47 , 3811AN, AMERSFOORT, Utrecht, Netherlands",52.1578861,5.3956652
"Leusderweg 34 , 3817KB, AMERSFOORT, Utrecht, Netherlands",52.1475827,5.383634
"Ariana Nozemanstraat 2 , 1065TS, AMSTERDAM, Noord-Holland, Netherlands",52.35560839999999,4.8316459
"Joannes Tolliusstraat 32 , 3818NB, AMERSFOORT, Utrecht, Netherlands",52.1496946,5.3822912
"Uithoflaan 1 , 4133GZ, VIANEN UT, Utrecht, Netherlands",51.9867983,5.0784537
"Uithoflaan 1 A, 4133GZ, VIANEN UT, Utrecht, Netherlands",51.98672999999999,5.079235
"Vasco da Gamalaan 1 , 3526ER, UTRECHT, Utrecht, Netherlands",52.0663626,5.0977974
"Vlaardingenlaan 25 a, 1062HM, AMSTERDAM, Noord-Holland, Netherlands",52.3462968,4.8353888
"Vd Sande Bakhuijzenstr 4 , 1061AG, AMSTERDAM, Noord-Holland, Netherlands",52.3721517,4.8360845
"Passeerdersgracht 32 , 1016XH, AMSTERDAM, Noord-Holland, Netherlands",52.3669924,4.880477
"Weverstede 39 , 3431JS, NIEUWEGEIN, Utrecht, Netherlands",52.027919,5.078983399999999
"Sportpark Bokkeduinen 11 , 3819BD, AMERSFOORT, Utrecht, Netherlands",52.1577354,5.3482235
"Daam Fockemalaan 10 , 3818KG, AMERSFOORT, Utrecht, Netherlands",52.141217,5.3530633
"Mississippidreef 8 -10, 3565CG, UTRECHT, Utrecht, Netherlands",52.12596070000001,5.0851679
"Dr Jan van Breemenstraat 1 , 1056AB, AMSTERDAM, Noord-Holland, Netherlands",52.37085099999999,4.843855599999999
"Burgerweeshuispad 54 , 1076EP, AMSTERDAM, Noord-Holland, Netherlands",52.3396839,4.8539534
"Filipijnenstraat 10 , 1339NA, ALMERE, Flevoland, Netherlands",52.3959941,5.30288
"Bisonspoor 3009 , 3605LX, MAARSSEN, Utrecht, Netherlands",52.135183,5.030376899999999
"Bisonspoor 3009 , 3605LX, MAARSSEN, Utrecht, Netherlands",52.135183,5.030376899999999
"Klaprozenweg 69 , 1032KK, AMSTERDAM, Noord-Holland, Netherlands",52.40060769999999,4.9010593
"Wittevrouwenkade 4 , 3512CR, UTRECHT, Utrecht, Netherlands",52.09571219999999,5.1256012
"Vredenburg 138 , 3511BG, UTRECHT, Utrecht, Netherlands",52.09175219999999,5.1144231
"De Boelelaan 1105 , 1081HV, AMSTERDAM, Noord-Holland, Netherlands",52.33426710000001,4.8669632
"Kwadrantweg 11 , 1042AG, AMSTERDAM, Noord-Holland, Netherlands",52.40023129999999,4.826511
"ms. Oslofjordweg 701 , 1033SL, AMSTERDAM, Noord-Holland, Netherlands",52.4039912,4.890032199999999
"Wibautstraat 135 -139, 1097DN, AMSTERDAM, Noord-Holland, Netherlands",52.3495806,4.9177689
"Postbus 75875 , 1070AW, AMSTERDAM, Noord-Holland, Netherlands",52.3675734,4.9041389
"Wibautstraat 135 -139, 1097DN, AMSTERDAM, Noord-Holland, Netherlands",52.3495806,4.9177689
"Parallelweg 1 , 3771LE, BARNEVELD, Gelderland, Netherlands",52.16246220000001,5.6008404
"Franciscusweg 8 -10, 1216SK, HILVERSUM, Noord-Holland, Netherlands",52.21374369999999,5.1425391
"Stationsstraat 2 , 1211EM, HILVERSUM, Noord-Holland, Netherlands",52.227246,5.1804212
"Grebbeberglaan 11 , 3527VX, UTRECHT, Utrecht, Netherlands",52.0801104,5.099774
"Laan van Puntenburg 2 -2A, 3511ER, UTRECHT, Utrecht, Netherlands",52.087688,5.113497
"Marius Bauerstraat 399 -401, 1062AP, AMSTERDAM, Noord-Holland, Netherlands",52.36257639999999,4.8352363
"Schipluidenlaan 12 -18, 1062HE, AMSTERDAM, Noord-Holland, Netherlands",52.3572956,4.8374033
"Dubbelink 1 , 1102AL, AMSTERDAM, Noord-Holland, Netherlands",52.322477,4.9492031
"Rustenburgerstraat 436 -438, 1072HK, AMSTERDAM, Noord-Holland, Netherlands",52.3512388,4.8884356
"Stationsstraat 19 , 1541LE, KOOG AAN DE ZAAN, Noord-Holland, Netherlands",52.46959,4.8099094
"2e C Huygensstr 31 , 1054NN, AMSTERDAM, Noord-Holland, Netherlands",52.3643915,4.874484499999999
"Daam Fockemalaan 22 , 3818KG, AMERSFOORT, Utrecht, Netherlands",52.1445613,5.3520017
"Drs. F. Bijlweg 21 , 1784MC, DEN HELDER, Noord-Holland, Netherlands",52.9385437,4.7522534
"Drs. F. Bijlweg 21 , 1784MC, DEN HELDER, Noord-Holland, Netherlands",52.9385437,4.7522534
"Drs. F. Bijlweg 45 , 1784MC, DEN HELDER, Noord-Holland, Netherlands",52.9362113,4.753146099999999
"Sperwerstraat 4 , 1781XC, DEN HELDER, Noord-Holland, Netherlands",52.95239520000001,4.7636102
"Drs. F. Bijlweg 21 , 1784MC, DEN HELDER, Noord-Holland, Netherlands",52.9385437,4.7522534
"Drs. F. Bijlweg 21 , 1784MC, DEN HELDER, Noord-Holland, Netherlands",52.9385437,4.7522534
"Middenweg 157 r, 1782BE, DEN HELDER, Noord-Holland, Netherlands",52.956756,4.7568928
"Middenweg 157 r, 1782BE, DEN HELDER, Noord-Holland, Netherlands",52.956756,4.7568928
"Meeuwenstraat 10 , 1781XA, DEN HELDER, Noord-Holland, Netherlands",52.95265440000001,4.7630617
"Meeuwenstraat 10 , 1781XA, DEN HELDER, Noord-Holland, Netherlands",52.95265440000001,4.7630617
"Kievitstraat 31 , 1781ZA, DEN HELDER, Noord-Holland, Netherlands",52.9527355,4.762866199999999
"Zuiderweg 15 , 1741NA, SCHAGEN, Noord-Holland, Netherlands",52.7828948,4.8042878
"Haffelderweg 40 , 1791AS, DEN BURG, Noord-Holland, Netherlands",53.0508108,4.8002437
"Het Nieuwe Diep 20 , 1781AC, DEN HELDER, Noord-Holland, Netherlands",52.9565419,4.7757007
"Sportlaan 54 , 1782ND, DEN HELDER, Noord-Holland, Netherlands",52.9519707,4.7529799
"Hofstraat 13 , 1741CD, SCHAGEN, Noord-Holland, Netherlands",52.7844484,4.7946788
"Burg Ritmeesterweg 31 , 1784NV, DEN HELDER, Noord-Holland, Netherlands",52.9327444,4.7507207
"Vlijmenseweg 2 , 5223GW, 'S-HERTOGENBOSCH, Noord-Brabant, Netherlands",51.6846892,5.2863922
"Vlijmenseweg 2 , 5223GW, 'S-HERTOGENBOSCH, Noord-Brabant, Netherlands",51.6846892,5.2863922
"Vlijmenseweg 2 , 5223GW, 'S-HERTOGENBOSCH, Noord-Brabant, Netherlands",51.6846892,5.2863922
"Vlijmenseweg 2 , 5223GW, 'S-HERTOGENBOSCH, Noord-Brabant, Netherlands",51.6846892,5.2863922
"Glorieuxlaan 6 , 5261SJ, VUGHT, Noord-Brabant, Netherlands",51.65197320000001,5.2999713
"Glorieuxlaan 6 , 5261SJ, VUGHT, Noord-Brabant, Netherlands",51.65197320000001,5.2999713
"Onderwijsboulevard 3 , 5223DE, 'S-HERTOGENBOSCH, Noord-Brabant, Netherlands",51.6905769,5.2856331
"Stadionlaan 53 , 5213JJ, 'S-HERTOGENBOSCH, Noord-Brabant, Netherlands",51.7020321,5.328638799999999
"Muntelaar 10 , 5467HA, VEGHEL, Noord-Brabant, Netherlands",51.6209971,5.5637587
"Euterpelaan 100 , 5344CS, OSS, Noord-Brabant, Netherlands",51.7583948,5.517837999999999
"Jan van Cuijkstraat 52 , 5431GC, CUIJK, Noord-Brabant, Netherlands",51.7220194,5.8806728
"Udenseweg 2 , 5405PA, UDEN, Noord-Brabant, Netherlands",51.651265,5.6407386
"Nelson Mandelaboulevard 4 , 5342CZ, OSS, Noord-Brabant, Netherlands",51.7559,5.5253761
"Gasstraat-Oost 12 , 5349AV, OSS, Noord-Brabant, Netherlands",51.7627895,5.5448506
"Beversestraat 20 , 5431SH, CUIJK, Noord-Brabant, Netherlands",51.7247645,5.8695526
"Weidonklaan 100 , 5223VL, 'S-HERTOGENBOSCH, Noord-Brabant, Netherlands",51.68739859999999,5.273810800000001
"Onderwijsboulevard 3 , 5223DE, 'S-HERTOGENBOSCH, Noord-Brabant, Netherlands",51.6905769,5.2856331
"Marathonloop 11 , 5235AA, 'S-HERTOGENBOSCH, Noord-Brabant, Netherlands",51.7223722,5.316739099999999
"Jacob van Maerlantstraat 4 , 5216JL, 'S-HERTOGENBOSCH, Noord-Brabant, Netherlands",51.6861018,5.319568299999999
"Rietveldenweg 22 , 5222AR, 'S-HERTOGENBOSCH, Noord-Brabant, Netherlands",51.6971302,5.282422
"De Kleine Elst 11 , 5246JK, ROSMALEN, Noord-Brabant, Netherlands",51.704835,5.3456005
"Meester Vriensstraat 2 , 5246JS, ROSMALEN, Noord-Brabant, Netherlands",51.7052866,5.3393403
"Braamkamp 422 , 7206HV, ZUTPHEN, Gelderland, Netherlands",52.1217397,6.2024251
"Marktstraat 27 , 2411BE, BODEGRAVEN, Zuid-Holland, Netherlands",52.0859606,4.7485367
"Kerkweg 59 , 6713NC, EDE, Gelderland, Netherlands",52.0322584,5.6573205
"Kampenringweg 43 , 2803PE, GOUDA, Zuid-Holland, Netherlands",52.0271457,4.6796561
"Ceintuurbaan 2 , 3847LG, HARDERWIJK, Gelderland, Netherlands",52.3337718,5.643003300000001
"Ceintuurbaan 2 , 3847LG, HARDERWIJK, Gelderland, Netherlands",52.3337718,5.643003300000001
"Kerkweg 59 , 6713NC, EDE, Gelderland, Netherlands",52.0322584,5.6573205
"Ceintuurbaan 2 , 3847LG, HARDERWIJK, Gelderland, Netherlands",52.3337718,5.643003300000001
"Ceintuurbaan 2 , 3847LG, HARDERWIJK, Gelderland, Netherlands",52.3337718,5.643003300000001
"Juliana van Stolbergstr 8 , 2983HK, RIDDERKERK, Zuid-Holland, Netherlands",51.8806162,4.6097312
"Habsburglaan 3 , 5616HV, EINDHOVEN, Noord-Brabant, Netherlands",51.4341851,5.4556229
"Habsburglaan 3 , 5616HV, EINDHOVEN, Noord-Brabant, Netherlands",51.4341851,5.4556229
"Karel de Grotelaan 355 , 5654NN, EINDHOVEN, Noord-Brabant, Netherlands",51.4274052,5.4598843
"von Flotowlaan 1 , 5653AD, EINDHOVEN, Noord-Brabant, Netherlands",51.4287281,5.457303599999999
"Japarastraat 4 , 3029NA, ROTTERDAM, Zuid-Holland, Netherlands",51.9030762,4.4467959
"Deltahaven 4 , 3251LC, STELLENDAM, Zuid-Holland, Netherlands",51.821033,4.0381615
"Deltahaven 4 , 3251LC, STELLENDAM, Zuid-Holland, Netherlands",51.821033,4.0381615
"Kerkhoekstraat 1 , 3232AE, BRIELLE, Zuid-Holland, Netherlands",51.8975447,4.1575801
"Kerkhoekstraat 1 , 3232AE, BRIELLE, Zuid-Holland, Netherlands",51.8975447,4.1575801
"Kerkhoekstraat 1 , 3232AE, BRIELLE, Zuid-Holland, Netherlands",51.8975447,4.1575801
"Kerkhoekstraat 1 , 3232AE, BRIELLE, Zuid-Holland, Netherlands",51.8975447,4.1575801
"Willem Buytewechstraat 45 , 3024BK, ROTTERDAM, Zuid-Holland, Netherlands",51.9078623,4.4614745
"Waalhaven Z.z. 18 , 3088HH, ROTTERDAM, Zuid-Holland, Netherlands",51.8780307,4.4494468
"Anthony Fokkerweg 4 , 3088GG, ROTTERDAM, Zuid-Holland, Netherlands",51.8779231,4.4484793
"Anthony Fokkerweg 4 , 3088GG, ROTTERDAM, Zuid-Holland, Netherlands",51.8779231,4.4484793
"Soerweg 31 , 3088GR, ROTTERDAM, Zuid-Holland, Netherlands",51.8763179,4.4490659
"Waalhaven Z.z. 4 , 3088HH, ROTTERDAM, Zuid-Holland, Netherlands",51.8778118,4.4517624
"Boulevard Bankert 130 , 4382AC, VLISSINGEN, Zeeland, Netherlands",51.4449384,3.5665684
"Kamerlingh Onnesstraat 20 , 6533HL, NIJMEGEN, Gelderland, Netherlands",51.814179,5.8383866
"Sluisweg 98 , 2225XP, KATWIJK ZH, Zuid-Holland, Netherlands",52.20701469999999,4.4044403
"Zuidstraat 135 a, 2225GV, KATWIJK ZH, Zuid-Holland, Netherlands",52.2024469,4.4004154
"Mozartlaan 15 , 8031AA, ZWOLLE, Overijssel, Netherlands",52.5199789,6.0835759
"Westzeedijk 487 , 3024EL, ROTTERDAM, Zuid-Holland, Netherlands",51.904889,4.4575002
"Lloydstraat 35 , 3024EA, ROTTERDAM, Zuid-Holland, Netherlands",51.9018206,4.4592728
"Waalhaven Z.z. 16 , 3088HH, ROTTERDAM, Zuid-Holland, Netherlands",51.8780845,4.4495323
"Havenstraat 12 , 6051CR, MAASBRACHT, Limburg, Netherlands",51.1468598,5.8863094
"Zeldenrustlaan 4 , 4535GZ, TERNEUZEN, Zeeland, Netherlands",51.3099663,3.8559703
"Zeldenrustlaan 4 , 4535GZ, TERNEUZEN, Zeeland, Netherlands",51.3099663,3.8559703
"Vlietstraat 11 A, 4535HA, TERNEUZEN, Zeeland, Netherlands",51.3102391,3.857652499999999
"Zeldenrustlaan 4 , 4535GZ, TERNEUZEN, Zeeland, Netherlands",51.3099663,3.8559703
"Zeldenrustlaan 4 , 4535GZ, TERNEUZEN, Zeeland, Netherlands",51.3099663,3.8559703
"Zeldenrustlaan 4 , 4535GZ, TERNEUZEN, Zeeland, Netherlands",51.3099663,3.8559703
"Vlietstraat 11 A, 4535HA, TERNEUZEN, Zeeland, Netherlands",51.3102391,3.857652499999999
"Michiel de Ruijtersingel 25 , 4535AW, TERNEUZEN, Zeeland, Netherlands",51.31612440000001,3.8557517
"Michiel de Ruijtersingel 25 , 4535AW, TERNEUZEN, Zeeland, Netherlands",51.31612440000001,3.8557517
"Vlietstraat 11 A, 4535HA, TERNEUZEN, Zeeland, Netherlands",51.3102391,3.857652499999999
"Prins Bernhardlaan 25 , 6713MA, EDE, Gelderland, Netherlands",52.0303858,5.6655259
"Pandhof 6 , 1613EL, GROOTEBROEK, Noord-Holland, Netherlands",52.69114920000001,5.22464
"Radboud 8 , 1613LJ, GROOTEBROEK, Noord-Holland, Netherlands",52.6985225,5.2241221
"Umbriellaan 2 , 1702AJ, HEERHUGOWAARD, Noord-Holland, Netherlands",52.6700325,4.827679499999999
"Hogeschoollaan 1 , 4818CR, BREDA, Noord-Brabant, Netherlands",51.58460969999999,4.797214299999999
"Hogeschoollaan 1 , 4818CR, BREDA, Noord-Brabant, Netherlands",51.58460969999999,4.797214299999999
"Hogeschoollaan 1 , 4818CR, BREDA, Noord-Brabant, Netherlands",51.58460969999999,4.797214299999999
"Prof Cobbenhagenlaan 13 , 5037DA, TILBURG, Noord-Brabant, Netherlands",51.56182949999999,5.0574299
"Hogeschoollaan 1 , 4818CR, BREDA, Noord-Brabant, Netherlands",51.58460969999999,4.797214299999999
"Prof Cobbenhagenlaan 13 , 5037DA, TILBURG, Noord-Brabant, Netherlands",51.56182949999999,5.0574299
"De Marke 4 , 3823GP, AMERSFOORT, Utrecht, Netherlands",52.1892327,5.4007969
"Jan Bottemastraat 3 A, 1403TG, BUSSUM, Noord-Holland, Netherlands",52.2661712,5.175771699999999
"Kerklaan 6 , 1251JT, LAREN NH, Noord-Holland, Netherlands",52.257399,5.227796
"Nieuwezijds Voorburgwal 120 , 1012SH, AMSTERDAM, Noord-Holland, Netherlands",52.3752737,4.8917275
"Weesperstraat 140 , 1112AP, DIEMEN, Noord-Holland, Netherlands",52.3318254,4.974418399999999
"Wilhelminapark 13 , 5554JD, VALKENSWAARD, Noord-Brabant, Netherlands",51.34661029999999,5.4626185
"Deurneseweg 11 , 5709AH, HELMOND, Noord-Brabant, Netherlands",51.4704363,5.7108737
"Deurneseweg 11 , 5709AH, HELMOND, Noord-Brabant, Netherlands",51.4704363,5.7108737
"Wilaarderburen 1 , 8924JK, LEEUWARDEN, Friesland, Netherlands",53.2035184,5.8340798
"Wilaarderburen 1 , 8924JK, LEEUWARDEN, Friesland, Netherlands",53.2035184,5.8340798
"Badweg 2 , 8934AA, LEEUWARDEN, Friesland, Netherlands",53.1870698,5.7974464
"De Eenhoorn 4 , 8932NX, LEEUWARDEN, Friesland, Netherlands",53.1967529,5.7985333
"De Eenhoorn 4 , 8932NX, LEEUWARDEN, Friesland, Netherlands",53.1967529,5.7985333
"Ellertsveld 15 , 8302JD, EMMELOORD, Flevoland, Netherlands",52.7183988,5.7414382
"Ellertsveld 15 , 8302JD, EMMELOORD, Flevoland, Netherlands",52.7183988,5.7414382
"Espelerlaan 74 , 8302DC, EMMELOORD, Flevoland, Netherlands",52.7170333,5.7479441
"Espelerlaan 74 , 8302DC, EMMELOORD, Flevoland, Netherlands",52.7170333,5.7479441
"Wilaarderburen 1 , 8924JK, LEEUWARDEN, Friesland, Netherlands",53.2035184,5.8340798
"Wilaarderburen 1 , 8924JK, LEEUWARDEN, Friesland, Netherlands",53.2035184,5.8340798
"Wilaarderburen 1 , 8924JK, LEEUWARDEN, Friesland, Netherlands",53.2035184,5.8340798
"Birdaarderstraatweg 125 , 9101CZ, DOKKUM, Friesland, Netherlands",53.3213441,5.985662899999999
"Birdaarderstraatweg 125 , 9101CZ, DOKKUM, Friesland, Netherlands",53.3213441,5.985662899999999
"Birdaarderstraatweg 125 , 9101CZ, DOKKUM, Friesland, Netherlands",53.3213441,5.985662899999999
"Birdaarderstraatweg 125 , 9101CZ, DOKKUM, Friesland, Netherlands",53.3213441,5.985662899999999
"Noordzijde 11 , 8302GK, EMMELOORD, Flevoland, Netherlands",52.7120064,5.7594745
"Noordzijde 11 , 8302GK, EMMELOORD, Flevoland, Netherlands",52.7120064,5.7594745
"Leidijk 49 , 9202TW, DRACHTEN, Friesland, Netherlands",53.1064601,6.1139082
"Leidijk 49 , 9202TW, DRACHTEN, Friesland, Netherlands",53.1064601,6.1139082
"Leidijk 49 , 9202TW, DRACHTEN, Friesland, Netherlands",53.1064601,6.1139082
"Bredyk 2 -4, 8601ZD, SNEEK, Friesland, Netherlands",53.03212139999999,5.641719
"Bredyk 2 -4, 8601ZD, SNEEK, Friesland, Netherlands",53.03212139999999,5.641719
"Bredyk 2 -4, 8601ZD, SNEEK, Friesland, Netherlands",53.03212139999999,5.641719
"Smeden 1 , 8301XG, EMMELOORD, Flevoland, Netherlands",52.70863569999999,5.753868799999999
"Wilgenlaan 4 , 8302AM, EMMELOORD, Flevoland, Netherlands",52.71688,5.7514973
"Julianalaan 95 , 8931AH, LEEUWARDEN, Friesland, Netherlands",53.1894042,5.7845147
"Oostergoweg 6 , 8932PG, LEEUWARDEN, Friesland, Netherlands",53.1893949,5.798943700000001
"Anne Wadmanwei 6 , 8914BD, LEEUWARDEN, Friesland, Netherlands",53.1995926,5.7647433
"Anne Wadmanwei 6 , 8914BD, LEEUWARDEN, Friesland, Netherlands",53.1995926,5.7647433
"De Wetterwille 68 , 9207BK, DRACHTEN, Friesland, Netherlands",53.11895550000001,6.091682899999999
"Het Perk 71 , 8608BA, SNEEK, Friesland, Netherlands",53.02459090000001,5.645937399999999
"Het Perk 71 , 8608BA, SNEEK, Friesland, Netherlands",53.02459090000001,5.645937399999999
"Harste 4 -6, 8602JX, SNEEK, Friesland, Netherlands",53.0378314,5.6443469
"Harste 4 -6, 8602JX, SNEEK, Friesland, Netherlands",53.0378314,5.6443469
"Splitting 23 , 9202LC, DRACHTEN, Friesland, Netherlands",53.10439419999999,6.114912500000001
"Eeltjebaasweg 6 , 8606KA, SNEEK, Friesland, Netherlands",53.0221265,5.6949364
"Splitting 21 , 9202LC, DRACHTEN, Friesland, Netherlands",53.1049333,6.1137665
"Lange Riet 2 , 8321XA, URK, Flevoland, Netherlands",52.6619306,5.604676599999999
"Splitting 21 b, 9202LC, DRACHTEN, Friesland, Netherlands",53.1049333,6.1137665
"Egelantierstraat 70 , 8924EP, LEEUWARDEN, Friesland, Netherlands",53.20960299999999,5.8250417
"Burgemeester Wuiteweg 22 , 9203KK, DRACHTEN, Friesland, Netherlands",53.1032927,6.0977695
"Martiniplein 1 , 8601EG, SNEEK, Friesland, Netherlands",53.0310957,5.6584651
"Compagnonsplein 1 , 9202NN, DRACHTEN, Friesland, Netherlands",53.09969049999999,6.1112551
"Jansoniusstraat 2 , 8934BM, LEEUWARDEN, Friesland, Netherlands",53.1940667,5.8069317
"Middelzeelaan 18 a, 8931AK, LEEUWARDEN, Friesland, Netherlands",53.1899712,5.777355
"Julianalaan 97 , 8931AH, LEEUWARDEN, Friesland, Netherlands",53.1899238,5.7827232
"Saturnus 7 , 8448CC, HEERENVEEN, Friesland, Netherlands",52.9725763,5.9311048
"Anne Wadmanwei 2 , 8914BD, LEEUWARDEN, Friesland, Netherlands",53.2019634,5.7626557
"Abe Lenstra boulevard 29 , 8448JA, HEERENVEEN, Friesland, Netherlands",52.9576925,5.9366503
"Julianalaan 99 , 8931AH, LEEUWARDEN, Friesland, Netherlands",53.1902699,5.7821054
"Ruiterskwartier 41 , 8911BP, LEEUWARDEN, Friesland, Netherlands",53.20033540000001,5.790314899999999
"Skrynmakker 1 , 8447GH, HEERENVEEN, Friesland, Netherlands",52.9645215,5.901095199999999
"M.A. de Ruyterstraat 3 , 7556CW, HENGELO OV, Overijssel, Netherlands",52.27189980000001,6.797666
"M.A. de Ruyterstraat 3 , 7556CW, HENGELO OV, Overijssel, Netherlands",52.27189980000001,6.797666
"Oude Barneveldseweg 65 , 3862PS, NIJKERK, Gelderland, Netherlands",52.217883,5.501529
"Utrechtseweg 230 , 3818ET, AMERSFOORT, Utrecht, Netherlands",52.138036,5.3519422
"Utrechtseweg 230 , 3818ET, AMERSFOORT, Utrecht, Netherlands",52.138036,5.3519422
"Utrechtseweg 230 , 3818ET, AMERSFOORT, Utrecht, Netherlands",52.138036,5.3519422
"Gemeenteweg 317 , 7951PA, STAPHORST, Overijssel, Netherlands",52.6522128,6.2245256
"Gemeenteweg 317 , 7951PA, STAPHORST, Overijssel, Netherlands",52.6522128,6.2245256
"Engelenbergplantsoen 5 , 8266AB, KAMPEN, Overijssel, Netherlands",52.5517061,5.921434
"W Hendrik Zwartallee 1 , 8265TZ, KAMPEN, Overijssel, Netherlands",52.5366152,5.9204979
"Carnissesingel 210 , 3084NA, ROTTERDAM, Zuid-Holland, Netherlands",51.8858766,4.482661
"Van Dusseldorpstraat 45 , 4461LT, GOES, Zeeland, Netherlands",51.4989702,3.9039301
"Utrechtseweg 230 , 3818ET, AMERSFOORT, Utrecht, Netherlands",52.138036,5.3519422
"Gijsbrechtgaarde 110 , 7329CA, APELDOORN, Gelderland, Netherlands",52.2015425,5.9939634
"Musschenbroekstraat 11 , 7316JD, APELDOORN, Gelderland, Netherlands",52.2306779,5.969734799999999
"Rijsselseweg 1 , 2803PZ, GOUDA, Zuid-Holland, Netherlands",52.020561,4.6859135
"Noordelijk Halfrond 10 , 2801DE, GOUDA, Zuid-Holland, Netherlands",52.017126,4.685204199999999
"Koningsbergerstraat 9 , 3531AJ, UTRECHT, Utrecht, Netherlands",52.08750569999999,5.0988826
"Koningsbergerstraat 9 , 3531AJ, UTRECHT, Utrecht, Netherlands",52.08750569999999,5.0988826
"Bachlaan 11 , 7002MZ, DOETINCHEM, Gelderland, Netherlands",51.967395,6.3026189
"Bachlaan 11 , 7002MZ, DOETINCHEM, Gelderland, Netherlands",51.967395,6.3026189
"Bachlaan 11 , 7002MZ, DOETINCHEM, Gelderland, Netherlands",51.967395,6.3026189
"Marktstraat 27 , 2411BE, BODEGRAVEN, Zuid-Holland, Netherlands",52.0859606,4.7485367
"Marktstraat 27 , 2411BE, BODEGRAVEN, Zuid-Holland, Netherlands",52.0859606,4.7485367
"Vogelsanglaan 1 , 3571ZM, UTRECHT, Utrecht, Netherlands",52.1035044,5.1329535
"Vogelsanglaan 1 , 3571ZM, UTRECHT, Utrecht, Netherlands",52.1035044,5.1329535
"Vogelsanglaan 1 , 3571ZM, UTRECHT, Utrecht, Netherlands",52.1035044,5.1329535
"Hemelrijken 106 A, 5612LH, EINDHOVEN, Noord-Brabant, Netherlands",51.446088,5.471057
"Hemelrijken 106 A, 5612LH, EINDHOVEN, Noord-Brabant, Netherlands",51.446088,5.471057
"De Lismortel 25 , 5612AR, EINDHOVEN, Noord-Brabant, Netherlands",51.4498796,5.4932817
"Deken van Miertstraat 14 , 5461JN, VEGHEL, Noord-Brabant, Netherlands",51.6179816,5.5440536
"Deken van Miertstraat 14 , 5461JN, VEGHEL, Noord-Brabant, Netherlands",51.6179816,5.5440536
"Westsingel 58 , 4461DM, GOES, Zeeland, Netherlands",51.501238,3.8858804
"Westsingel 58 , 4461DM, GOES, Zeeland, Netherlands",51.501238,3.8858804
"Klein Frankrijk 1 , 4461ZN, GOES, Zeeland, Netherlands",51.5076926,3.878271
"Stationspark 39 , 4462DZ, GOES, Zeeland, Netherlands",51.4963382,3.891337399999999
"Kwikstaart 1 , 3435RL, NIEUWEGEIN, Utrecht, Netherlands",52.0272084,5.0727737
"Kwikstaart 1 , 3435RL, NIEUWEGEIN, Utrecht, Netherlands",52.0272084,5.0727737
"Agora 1 , 8934CJ, LEEUWARDEN, Friesland, Netherlands",53.194243,5.803566699999999
"Agora 1 , 8934CJ, LEEUWARDEN, Friesland, Netherlands",53.194243,5.803566699999999
"Gardeniersweg 2 , 8933AA, LEEUWARDEN, Friesland, Netherlands",53.1980595,5.8009564
"Jansoniusstraat 2 a, 8934BM, LEEUWARDEN, Friesland, Netherlands",53.1938834,5.8057355
"Jansoniusstraat 2 a, 8934BM, LEEUWARDEN, Friesland, Netherlands",53.1938834,5.8057355
"Lelievaart 65 , 2724SC, ZOETERMEER, Zuid-Holland, Netherlands",52.066071,4.5022094
"Van Der Biltlaan 25 , 4421BB, KAPELLE, Zeeland, Netherlands",51.4847025,3.9575177
"Berkenburg 7 , 8702BD, BOLSWARD, Friesland, Netherlands",53.07236229999999,5.5313241
"Berkenburg 7 , 8702BD, BOLSWARD, Friesland, Netherlands",53.07236229999999,5.5313241
"Marktstraat 27 , 2411BE, BODEGRAVEN, Zuid-Holland, Netherlands",52.0859606,4.7485367
"Marktstraat 27 , 2411BE, BODEGRAVEN, Zuid-Holland, Netherlands",52.0859606,4.7485367
"Piet Heinstraat 3 , 7772ZJ, HARDENBERG, Overijssel, Netherlands",52.5712568,6.621906699999999
"Parkweg 1 -2, 7772XP, HARDENBERG, Overijssel, Netherlands",52.5760811,6.623164
"Marktstraat 27 , 2411BE, BODEGRAVEN, Zuid-Holland, Netherlands",52.0859606,4.7485367
"Middenweg 11 , 2235EB, VALKENBURG ZH, Zuid-Holland, Netherlands",52.17942350000001,4.4340071
"Middenweg 11 , 2235EB, VALKENBURG ZH, Zuid-Holland, Netherlands",52.17942350000001,4.4340071
"Marktstraat 27 , 2411BE, BODEGRAVEN, Zuid-Holland, Netherlands",52.0859606,4.7485367
"Marktstraat 27 , 2411BE, BODEGRAVEN, Zuid-Holland, Netherlands",52.0859606,4.7485367
"Midlumerlaan 42 B, 8861JM, HARLINGEN, Friesland, Netherlands",53.179742,5.429689499999999
"Pieter de Hoochweg 122 , 3024BJ, ROTTERDAM, Zuid-Holland, Netherlands",51.9062674,4.460264899999999
"Pieter de Hoochweg 122 , 3024BJ, ROTTERDAM, Zuid-Holland, Netherlands",51.9062674,4.460264899999999
"Kruisplein 26 , 3012CC, ROTTERDAM, Zuid-Holland, Netherlands",51.9222752,4.4720244
"Kruisplein 26 , 3012CC, ROTTERDAM, Zuid-Holland, Netherlands",51.9222752,4.4720244
"Badhuisweg 251 , 2597JR, 'S-GRAVENHAGE, Zuid-Holland, Netherlands",52.1008513,4.3010806
"Kortenaerkade 12 , 2518AX, 'S-GRAVENHAGE, Zuid-Holland, Netherlands",52.0838613,4.3033717
"Badhuisweg 251 , 2597JR, 'S-GRAVENHAGE, Zuid-Holland, Netherlands",52.1008513,4.3010806
"Kortenaerkade 11 , 2518AX, 'S-GRAVENHAGE, Zuid-Holland, Netherlands",52.0836565,4.3025665
"Koperstraat 4 , 9743RW, GRONINGEN, Groningen, Netherlands",53.2217168,6.5293795
"Vondelpad 4 , 9721LX, GRONINGEN, Groningen, Netherlands",53.2017324,6.568559899999999
"Vondelpad 4 , 9721LX, GRONINGEN, Groningen, Netherlands",53.2017324,6.568559899999999
"Koperstraat 4 , 9743RW, GRONINGEN, Groningen, Netherlands",53.2217168,6.5293795
"Vondelpad 4 , 9721LX, GRONINGEN, Groningen, Netherlands",53.2017324,6.568559899999999
"Dennenweg 2 , 3735MR, BOSCH EN DUIN, Utrecht, Netherlands",52.11499870000001,5.2443781
"Dennenweg 2 , 3735MR, BOSCH EN DUIN, Utrecht, Netherlands",52.11499870000001,5.2443781
"Arnhemseweg 65 , 3817CB, AMERSFOORT, Utrecht, Netherlands",52.1484313,5.3865314
"Campus 5 , 8017CB, ZWOLLE, Overijssel, Netherlands",52.4981836,6.081025599999999
"Campus 5 , 8017CB, ZWOLLE, Overijssel, Netherlands",52.4981836,6.081025599999999
"Assendorperdijk 55 , 8012EG, ZWOLLE, Overijssel, Netherlands",52.5049323,6.1111038
"Arnhemseweg 65 , 3817CB, AMERSFOORT, Utrecht, Netherlands",52.1484313,5.3865314
"Arnhemseweg 65 , 3817CB, AMERSFOORT, Utrecht, Netherlands",52.1484313,5.3865314
"Snelliusstraat 4 , 7316JX, APELDOORN, Gelderland, Netherlands",52.2333304,5.9607629
"Marktstraat 27 , 2411BE, BODEGRAVEN, Zuid-Holland, Netherlands",52.0859606,4.7485367
"Boterbloempad 6 , 7921LN, ZUIDWOLDE DR, Drenthe, Netherlands",52.67274579999999,6.435553
"Muntinglaan 3 , 9727JT, GRONINGEN, Groningen, Netherlands",53.2034437,6.5623273
"Noordkade 94 , 2741GA, WADDINXVEEN, Zuid-Holland, Netherlands",52.0554222,4.6616352
"Smeden 1 , 8301XG, EMMELOORD, Flevoland, Netherlands",52.70863569999999,5.753868799999999
"Hoofdstraat 78 , 3972LB, DRIEBERGEN-RIJSENBURG, Utrecht, Netherlands",52.0585996,5.2707308
"Hoofdstraat 78 , 3972LB, DRIEBERGEN-RIJSENBURG, Utrecht, Netherlands",52.0585996,5.2707308
"Driebergsestraatweg 11 , 3941ZW, DOORN, Utrecht, Netherlands",52.03502530000001,5.3256519
"Driebergsestraatweg 11 , 3941ZW, DOORN, Utrecht, Netherlands",52.03502530000001,5.3256519
"Spoorlaan 96 , 5348KD, OSS, Noord-Brabant, Netherlands",51.76671650000001,5.5357503
"Berlagelaan 1 , 2033XS, HAARLEM, Noord-Holland, Netherlands",52.380882,4.6621467
"Benthemstraat 21 , 3032AA, ROTTERDAM, Zuid-Holland, Netherlands",51.928524,4.476329
"Marijkeweg 20 , 6709PG, WAGENINGEN, Gelderland, Netherlands",51.9698861,5.653663
"Marijkeweg 20 , 6709PG, WAGENINGEN, Gelderland, Netherlands",51.9698861,5.653663
"B.P. van Verschuerstraat 15 , 6828ZV, ARNHEM, Gelderland, Netherlands",51.9773886,5.919190599999999
"Kruisweg 643 , 2132NC, HOOFDDORP, Noord-Holland, Netherlands",52.2923492,4.7180228
"Kruisweg 643 , 2132NC, HOOFDDORP, Noord-Holland, Netherlands",52.2923492,4.7180228
"Brinkwal 3 , 3432GA, NIEUWEGEIN, Utrecht, Netherlands",52.0272883,5.0919389
"Kruisweg 643 , 2132NC, HOOFDDORP, Noord-Holland, Netherlands",52.2923492,4.7180228
"Brinkwal 7 , 3432GA, NIEUWEGEIN, Utrecht, Netherlands",52.0276326,5.092105999999999
"Marktstraat 27 , 2411BE, BODEGRAVEN, Zuid-Holland, Netherlands",52.0859606,4.7485367
"Marktstraat 27 , 2411BE, BODEGRAVEN, Zuid-Holland, Netherlands",52.0859606,4.7485367
"Jan van Galenstraat 1 , 2678GJ, DE LIER, Zuid-Holland, Netherlands",51.9760564,4.2572531
"Jan van Galenstraat 1 , 2678GJ, DE LIER, Zuid-Holland, Netherlands",51.9760564,4.2572531
"Brasserskade 1 , 2612CA, DELFT, Zuid-Holland, Netherlands",52.0235348,4.3498433
"Kalfjeslaan 2 , 2623AA, DELFT, Zuid-Holland, Netherlands",51.98834180000001,4.3605652
"Mgr Nolenslaan 99 b, 3119EB, SCHIEDAM, Zuid-Holland, Netherlands",51.92172859999999,4.3933424
"Mgr Nolenslaan 99 b, 3119EB, SCHIEDAM, Zuid-Holland, Netherlands",51.92172859999999,4.3933424
"Parallelweg 401 , 3112NA, SCHIEDAM, Zuid-Holland, Netherlands",51.9214686,4.4141251
"Parallelweg 401 , 3112NA, SCHIEDAM, Zuid-Holland, Netherlands",51.9214686,4.4141251
"Druivenstraat 1 , 2671SC, NAALDWIJK, Zuid-Holland, Netherlands",51.988862,4.219315
"Druivenstraat 1 , 2671SC, NAALDWIJK, Zuid-Holland, Netherlands",51.988862,4.219315
"Chrysant 1 , 2678PA, DE LIER, Zuid-Holland, Netherlands",51.97615099999999,4.245114099999999
"Chrysant 1 , 2678PA, DE LIER, Zuid-Holland, Netherlands",51.97615099999999,4.245114099999999
"Professor Holwerdalaan 62 , 2672LD, NAALDWIJK, Zuid-Holland, Netherlands",51.9874312,4.2016002
"Professor Holwerdalaan 62 , 2672LD, NAALDWIJK, Zuid-Holland, Netherlands",51.9874312,4.2016002
"Professor Holwerdalaan 62 , 2672LD, NAALDWIJK, Zuid-Holland, Netherlands",51.9874312,4.2016002
"Professor Holwerdalaan 62 , 2672LD, NAALDWIJK, Zuid-Holland, Netherlands",51.9874312,4.2016002
"Europa 1 , 2672ZX, NAALDWIJK, Zuid-Holland, Netherlands",51.9933326,4.226564499999999
"Commandeurskade 22 , 3155AD, MAASLAND, Zuid-Holland, Netherlands",51.9402984,4.2764882
"Commandeurskade 22 , 3155AD, MAASLAND, Zuid-Holland, Netherlands",51.9402984,4.2764882
"Commandeurskade 22 , 3155AD, MAASLAND, Zuid-Holland, Netherlands",51.9402984,4.2764882
"Wilgenlei 2 b, 2665KN, BLEISWIJK, Zuid-Holland, Netherlands",52.0000331,4.539455999999999
"Wilgenlei 2 b, 2665KN, BLEISWIJK, Zuid-Holland, Netherlands",52.0000331,4.539455999999999
"Wilgenlei 2 b, 2665KN, BLEISWIJK, Zuid-Holland, Netherlands",52.0000331,4.539455999999999
"Dierensteinweg 2 , 2991XJ, BARENDRECHT, Zuid-Holland, Netherlands",51.86210819999999,4.5373977
"Dierensteinweg 2 , 2991XJ, BARENDRECHT, Zuid-Holland, Netherlands",51.86210819999999,4.5373977
"Gebroken Meeldijk 66 , 2991VD, BARENDRECHT, Zuid-Holland, Netherlands",51.85433519999999,4.5562606
"Groene Zoom 113 , 3245CH, SOMMELSDIJK, Zuid-Holland, Netherlands",51.755857,4.1453099
"Groene Zoom 113 , 3245CH, SOMMELSDIJK, Zuid-Holland, Netherlands",51.755857,4.1453099
"Langeweg 111 , 3245KG, SOMMELSDIJK, Zuid-Holland, Netherlands",51.7515413,4.1591645
"Mackayware 122 , 8014RZ, ZWOLLE, Overijssel, Netherlands",52.4777016,6.111240700000001
"Marktstraat 27 , 2411BE, BODEGRAVEN, Zuid-Holland, Netherlands",52.0859606,4.7485367
"Marktstraat 27 , 2411BE, BODEGRAVEN, Zuid-Holland, Netherlands",52.0859606,4.7485367
"Bleulandweg 492 , 2803HS, GOUDA, Zuid-Holland, Netherlands",52.0203772,4.6988166
"Burgemeester Jamessingel 2 , 2803PD, GOUDA, Zuid-Holland, Netherlands",52.0190113,4.6990712
"Burgemeester Jamessingel 2 , 2803PD, GOUDA, Zuid-Holland, Netherlands",52.0190113,4.6990712
"Burgemeester Jamessingel 2 , 2803PD, GOUDA, Zuid-Holland, Netherlands",52.0190113,4.6990712
"Rachelsmolen 1 , 5612MA, EINDHOVEN, Noord-Brabant, Netherlands",51.4514466,5.4784581
"Rachelsmolen 1 , 5612MA, EINDHOVEN, Noord-Brabant, Netherlands",51.4514466,5.4784581
"Rachelsmolen 1 , 5612MA, EINDHOVEN, Noord-Brabant, Netherlands",51.4514466,5.4784581
"Ds Theodor Fliednerstr 2 , 5631BN, EINDHOVEN, Noord-Brabant, Netherlands",51.4532631,5.4900457
"Het Eeuwsel 2 , 5612AS, EINDHOVEN, Noord-Brabant, Netherlands",51.4490005,5.4926116
"Professor Goossenslaan 1 , 5022DM, TILBURG, Noord-Brabant, Netherlands",51.5390098,5.0777613
"Meerkoldreef 6 , 5042PN, TILBURG, Noord-Brabant, Netherlands",51.5669615,5.050517800000001
"Sint Josephstraat 106 -108, 5017GK, TILBURG, Noord-Brabant, Netherlands",51.5554672,5.0973396
"Korenbloemstraat 22 , 5571HR, BERGEIJK, Noord-Brabant, Netherlands",51.3195691,5.3542362
"Schadewijkstraat 13 , 5521HD, EERSEL, Noord-Brabant, Netherlands",51.35795290000001,5.3239636
"De Haar 1 , 7845TH, HOLSLOOT, Drenthe, Netherlands",52.7025683,6.8079937
"Marktstraat 27 , 2411BE, BODEGRAVEN, Zuid-Holland, Netherlands",52.0859606,4.7485367
"Marktstraat 27 , 2411BE, BODEGRAVEN, Zuid-Holland, Netherlands",52.0859606,4.7485367
"Marktstraat 27 , 2411BE, BODEGRAVEN, Zuid-Holland, Netherlands",52.0859606,4.7485367
"Stationsweg 63 , 5803AA, VENRAY, Limburg, Netherlands",51.5289991,5.9844072
"Looyenland 70 , 6931VG, WESTERVOORT, Gelderland, Netherlands",51.956511,5.976287699999999
"Kofschip 1 , 8223EZ, LELYSTAD, Flevoland, Netherlands",52.5227351,5.4746983
"Kolkgriend 157 , 1356BM, ALMERE, Flevoland, Netherlands",52.3369504,5.2381059
"Leidsedreef 4 , 2352BA, LEIDERDORP, Zuid-Holland, Netherlands",52.169248,4.519023
"Harmen Doumastraat 34 , 2321JL, LEIDEN, Zuid-Holland, Netherlands",52.149022,4.484726
"Mathenesserdijk 455 , 3026GH, ROTTERDAM, Zuid-Holland, Netherlands",51.9115544,4.446767700000001
"Versijdenstraat 20 , 3033TK, ROTTERDAM, Zuid-Holland, Netherlands",51.9278463,4.4697764
"Mathenesserdijk 455 , 3026GH, ROTTERDAM, Zuid-Holland, Netherlands",51.9115544,4.446767700000001
"Loolaan 346 , 7315AD, APELDOORN, Gelderland, Netherlands",52.2257732,5.949494199999999
"Loolaan 346 , 7315AD, APELDOORN, Gelderland, Netherlands",52.2257732,5.949494199999999
"Loolaan 346 , 7315AD, APELDOORN, Gelderland, Netherlands",52.2257732,5.949494199999999
"Loolaan 346 , 7315AD, APELDOORN, Gelderland, Netherlands",52.2257732,5.949494199999999
"Koning Lodewijklaan 6 , 7314GE, APELDOORN, Gelderland, Netherlands",52.2253141,5.9452552
"Koning Lodewijklaan 6 , 7314GE, APELDOORN, Gelderland, Netherlands",52.2253141,5.9452552
"Schouwrooij 2 , 5281RE, BOXTEL, Noord-Brabant, Netherlands",51.5850795,5.3093281
"Muntinglaan 3 , 9727JT, GRONINGEN, Groningen, Netherlands",53.2034437,6.5623273
"Driebergsestraatweg 11 , 3941ZW, DOORN, Utrecht, Netherlands",52.03502530000001,5.3256519
"Driebergsestraatweg 11 , 3941ZW, DOORN, Utrecht, Netherlands",52.03502530000001,5.3256519
"Pompelaan 8 , 3572LR, UTRECHT, Utrecht, Netherlands",52.1006217,5.142259399999999
"Francoise v Luxemburgln 9 , 1934GJ, EGMOND AAN DEN HOEF, Noord-Holland, Netherlands",52.6246011,4.658725800000001
"Francoise v Luxemburgln 9 , 1934GJ, EGMOND AAN DEN HOEF, Noord-Holland, Netherlands",52.6246011,4.658725800000001
"Tivoliweg 72 , 4561HM, HULST, Zeeland, Netherlands",51.2882633,4.0465357
"Agro Business Park 75 -81, 6708PV, WAGENINGEN, Gelderland, Netherlands",51.9761538,5.6479558
"Muntinglaan 3 , 9727JT, GRONINGEN, Groningen, Netherlands",53.2034437,6.5623273
"Maasheuvel 39 , 6116BS, ROOSTEREN, Limburg, Netherlands",51.0824812,5.8143414
"Mozartstraat 5 , 6137RJ, SITTARD, Limburg, Netherlands",50.99767110000001,5.8862041
"Schermerstraat 7 , 6137KM, SITTARD, Limburg, Netherlands",51.0023365,5.9009065
"Schermerstraat 7 , 6137KM, SITTARD, Limburg, Netherlands",51.0023365,5.9009065
"Marktstraat 27 , 2411BE, BODEGRAVEN, Zuid-Holland, Netherlands",52.0859606,4.7485367
"Huttendijk 6 , 7157BN, REKKEN, Gelderland, Netherlands",52.088311,6.7421253
"Huttendijk 6 , 7157BN, REKKEN, Gelderland, Netherlands",52.088311,6.7421253
"Sint Jansstraat 3 , 5171CJ, KAATSHEUVEL, Noord-Brabant, Netherlands",51.66112409999999,5.0251373
"Kennedystraat 45 , 5151CM, DRUNEN, Noord-Brabant, Netherlands",51.6833201,5.133236999999999
"Kennedystraat 45 , 5151CM, DRUNEN, Noord-Brabant, Netherlands",51.6833201,5.133236999999999
"Noordkade 94 , 2741GA, WADDINXVEEN, Zuid-Holland, Netherlands",52.0554222,4.6616352
"Limaweg 25 , 2743CB, WADDINXVEEN, Zuid-Holland, Netherlands",52.039179,4.645898499999999
"Limaweg 25 , 2743CB, WADDINXVEEN, Zuid-Holland, Netherlands",52.039179,4.645898499999999
"Limaweg 25 , 2743CB, WADDINXVEEN, Zuid-Holland, Netherlands",52.039179,4.645898499999999
"Noordkade 94 , 2741GA, WADDINXVEEN, Zuid-Holland, Netherlands",52.0554222,4.6616352
"Esdoornlaan 26 , 2742XH, WADDINXVEEN, Zuid-Holland, Netherlands",52.0444425,4.6441462
"Willem de Zwijgerweg 148 , 5684SL, BEST, Noord-Brabant, Netherlands",51.5004801,5.3841336
"Esdoornstraat 3 A, 8021WB, ZWOLLE, Overijssel, Netherlands",52.5207114,6.0939263
"Klovenier 1 , 3905PN, VEENENDAAL, Utrecht, Netherlands",52.0398817,5.5463736
"Azieweg 2 , 9407TG, ASSEN, Drenthe, Netherlands",53.0260218,6.5696959
"Pompelaan 8 , 3572LR, UTRECHT, Utrecht, Netherlands",52.1006217,5.142259399999999
"Pompelaan 8 , 3572LR, UTRECHT, Utrecht, Netherlands",52.1006217,5.142259399999999
"Kroonslag 2 , 3991TW, HOUTEN, Utrecht, Netherlands",52.0283531,5.1474226
"Kroonslag 2 , 3991TW, HOUTEN, Utrecht, Netherlands",52.0283531,5.1474226
"Sleepboot 2 , 3991CN, HOUTEN, Utrecht, Netherlands",52.0199024,5.152009899999999
"Pompelaan 8 , 3572LR, UTRECHT, Utrecht, Netherlands",52.1006217,5.142259399999999
"Kroonslag 2 , 3991TW, HOUTEN, Utrecht, Netherlands",52.0283531,5.1474226
"Sleepboot 2 , 3991CN, HOUTEN, Utrecht, Netherlands",52.0199024,5.152009899999999
"Sleepboot 2 , 3991CN, HOUTEN, Utrecht, Netherlands",52.0199024,5.152009899999999
"Wognumerplantsoen 4 , 1023EP, AMSTERDAM, Noord-Holland, Netherlands",52.3874824,4.9492106
"Dr. A. Kuyperstraat 17 , 6823EC, ARNHEM, Gelderland, Netherlands",51.9996738,5.9401524
"Prinses Marijkestraat 1 , 1721AZ, BROEK OP LANGEDIJK, Noord-Holland, Netherlands",52.6732773,4.8083493
"Stationspark 39 , 4462DZ, GOES, Zeeland, Netherlands",51.4963382,3.891337399999999
"P.C. Hooftlaan 1 , 9721JM, GRONINGEN, Groningen, Netherlands",53.19589910000001,6.574453099999999
"Voskuilenweg 127 , 6416AJ, HEERLEN, Limburg, Netherlands",50.88819549999999,5.9968084
"Duizeldonksestraat 1 b, 5705CA, HELMOND, Noord-Brabant, Netherlands",51.47231069999999,5.6850593
"Slachthuisweg 201 , 7556AZ, HENGELO OV, Overijssel, Netherlands",52.2731393,6.775740099999999
"Floris Versterstraat 2 , 8932BR, LEEUWARDEN, Friesland, Netherlands",53.1917382,5.7851724
"Diepenhorstlaan 3 , 2288EW, RIJSWIJK ZH, Zuid-Holland, Netherlands",52.04194829999999,4.331667299999999
"Loudonstraat 2 , 5018GE, TILBURG, Noord-Brabant, Netherlands",51.5597941,5.1055133
"De Dieze 28 b-c, 5684PT, BEST, Noord-Brabant, Netherlands",51.490978,5.4034285
"Hooghuisstraat 22 -24, 5611GT, EINDHOVEN, Noord-Brabant, Netherlands",51.4378809,5.4774094
"Cohenlaan 6 , 3571XH, UTRECHT, Utrecht, Netherlands",52.10533119999999,5.134446899999999
"Spui 2 , 8032VS, ZWOLLE, Overijssel, Netherlands",52.52721140000001,6.103410999999999
"Spui 2 , 8032VS, ZWOLLE, Overijssel, Netherlands",52.52721140000001,6.103410999999999
"Bornerbroeksestraat 348 , 7609PH, ALMELO, Overijssel, Netherlands",52.3367373,6.6609439
"Van Schendelstraat 1 , 9721GV, GRONINGEN, Groningen, Netherlands",53.2007081,6.571143500000001
"Van Ketwich Verschuurln 100 , 9721SW, GRONINGEN, Groningen, Netherlands",53.1926714,6.568124
"Boumaboulevard 113 , 9723ZS, GRONINGEN, Groningen, Netherlands",53.2066341,6.5928752
"Leonard Springerlaan 35 , 9727KB, GRONINGEN, Groningen, Netherlands",53.2048392,6.555427099999999
"Drakesteyn 5 , 6006AG, WEERT, Limburg, Netherlands",51.24684999999999,5.713628099999999
"Jagerstraat 6 , 6042KA, ROERMOND, Limburg, Netherlands",51.193371,6.017154
"Verlengde Nieuwstraat 177 , 3011GX, ROTTERDAM, Zuid-Holland, Netherlands",51.9197944,4.486902199999999
"Spinnekop 1 , 1444GN, PURMEREND, Noord-Holland, Netherlands",52.5181672,4.9727709
"W.M. Dudokweg 78 , 1703DC, HEERHUGOWAARD, Noord-Holland, Netherlands",52.6645224,4.8159863
"W.M. Dudokweg 78 , 1703DC, HEERHUGOWAARD, Noord-Holland, Netherlands",52.6645224,4.8159863
"W.M. Dudokweg 78 , 1703DC, HEERHUGOWAARD, Noord-Holland, Netherlands",52.6645224,4.8159863
"Bovenbuurtweg 27 , 6717XA, EDE, Gelderland, Netherlands",52.019105,5.661407
"Marijkeweg 20 , 6709PG, WAGENINGEN, Gelderland, Netherlands",51.9698861,5.653663
"Stationspark 39 , 4462DZ, GOES, Zeeland, Netherlands",51.4963382,3.891337399999999
"Stationspark 39 , 4462DZ, GOES, Zeeland, Netherlands",51.4963382,3.891337399999999
"Gondel 1 , 1186MJ, AMSTELVEEN, Noord-Holland, Netherlands",52.284391,4.859875000000001
"Burg Geuljanslaan 16 , 6041NB, ROERMOND, Limburg, Netherlands",51.1845091,5.979400999999999
"Burg Geuljanslaan 16 , 6041NB, ROERMOND, Limburg, Netherlands",51.1845091,5.979400999999999
"Burg Geuljanslaan 16 , 6041NB, ROERMOND, Limburg, Netherlands",51.1845091,5.979400999999999
"Mgr. Claessensstraat 4 , 6131AJ, SITTARD, Limburg, Netherlands",50.9981367,5.860494999999999
"Tegelseweg 255 , 5912BG, VENLO, Limburg, Netherlands",51.3540916,6.154294200000001
"Friedalaan 84 , 1161TP, ZWANENBURG, Noord-Holland, Netherlands",52.3802742,4.742709800000001
"Aletta Jacobslaan 34 , 1442AG, PURMEREND, Noord-Holland, Netherlands",52.51362229999999,4.953402899999999
"Martin Luther Kinglaan 123 , 1902PD, CASTRICUM, Noord-Holland, Netherlands",52.54732079999999,4.680676
"Wildlaan 24 , 2211KB, NOORDWIJKERHOUT, Zuid-Holland, Netherlands",52.25787,4.4977382
"Roumerweg 11 , 6107AC, STEVENSWEERT, Limburg, Netherlands",51.12715559999999,5.841699699999999
"Roumerweg 11 , 6107AC, STEVENSWEERT, Limburg, Netherlands",51.12715559999999,5.841699699999999
"Benthemstraat 2 , 3032AA, ROTTERDAM, Zuid-Holland, Netherlands",51.9275404,4.4770045
"Oosterenderweg 47 , 1794GB, OOSTEREND NH, Noord-Holland, Netherlands",53.0879748,4.8638317
"Middelton 9 , 1791TC, DEN BURG, Noord-Holland, Netherlands",53.0579365,4.8073029
"Groen van Prinstererlaan 1 , 5463CK, VEGHEL, Noord-Brabant, Netherlands",51.6123943,5.549376199999999
"Meentzoom 51 , 1261XA, BLARICUM, Noord-Holland, Netherlands",52.27753260000001,5.2518746
"Meentzoom 51 , 1261XA, BLARICUM, Noord-Holland, Netherlands",52.27753260000001,5.2518746
"Meentzoom 51 , 1261XA, BLARICUM, Noord-Holland, Netherlands",52.27753260000001,5.2518746
"Provincialeweg 126 , 1506ME, ZAANDAM, Noord-Holland, Netherlands",52.4398402,4.8144859
"Marktstraat 27 , 2411BE, BODEGRAVEN, Zuid-Holland, Netherlands",52.0859606,4.7485367
"Marktstraat 27 , 2411BE, BODEGRAVEN, Zuid-Holland, Netherlands",52.0859606,4.7485367
"Lange Broekweg 13 , 2671DS, NAALDWIJK, Zuid-Holland, Netherlands",51.98904959999999,4.2244557
"Lange Broekweg 13 , 2671DS, NAALDWIJK, Zuid-Holland, Netherlands",51.98904959999999,4.2244557
"Waaiershoek 46 , 8321BH, URK, Flevoland, Netherlands",52.6691774,5.6070274
"Zuid-Oostsingel 45 , 4611BC, BERGEN OP ZOOM, Noord-Brabant, Netherlands",51.4905033,4.290262
"Omloop 35 , 4614EM, BERGEN OP ZOOM, Noord-Brabant, Netherlands",51.5076388,4.295401
"Nieuweweg 30 , 4631TG, HOOGERHEIDE, Noord-Brabant, Netherlands",51.4288227,4.315849399999999
"Bonte salie 15 , 7422MJ, DEVENTER, Overijssel, Netherlands",52.248256,6.2088947
"Marktstraat 27 , 2411BE, BODEGRAVEN, Zuid-Holland, Netherlands",52.0859606,4.7485367
"Meester Sprenkelsstraat 6 , 5845CM, SINT ANTHONIS, Noord-Brabant, Netherlands",51.625927,5.8788614
"Bocholterweg 124 , 6006TP, WEERT, Limburg, Netherlands",51.2195579,5.6780614
"Sint Josephstraat 108 , 5017GK, TILBURG, Noord-Brabant, Netherlands",51.5558732,5.097143
"Sint Josephstraat 108 , 5017GK, TILBURG, Noord-Brabant, Netherlands",51.5558732,5.097143
"Sint Josephstraat 108 , 5017GK, TILBURG, Noord-Brabant, Netherlands",51.5558732,5.097143
"Rachelsmolen 1 , 5612MA, EINDHOVEN, Noord-Brabant, Netherlands",51.4514466,5.4784581
"Sint Josephstraat 108 , 5017GK, TILBURG, Noord-Brabant, Netherlands",51.5558732,5.097143
"Kerkepad 2 , 6131EZ, SITTARD, Limburg, Netherlands",50.9991748,5.8708214
"Kerkepad 2 , 6131EZ, SITTARD, Limburg, Netherlands",50.9991748,5.8708214
"Beukeboomweg 24 , 6132AC, SITTARD, Limburg, Netherlands",50.9925183,5.873655299999999
"Beukeboomweg 24 , 6132AC, SITTARD, Limburg, Netherlands",50.9925183,5.873655299999999
"Het Eeuwsel 2 , 5612AS, EINDHOVEN, Noord-Brabant, Netherlands",51.4490005,5.4926116
"Dr. Struyckenstraat 100 , 4812BH, BREDA, Noord-Brabant, Netherlands",51.57741189999999,4.7551335
"Citroenvlinderstraat 46 , 6533SZ, NIJMEGEN, Gelderland, Netherlands",51.8152966,5.8493772
"Hogeweg 24 A, 5911EB, VENLO, Limburg, Netherlands",51.37493509999999,6.1732378
"Diepenbrockstraat 15 , 6411TJ, HEERLEN, Limburg, Netherlands",50.88912140000001,5.9641145
"Sint Josephstraat 135 , 5017GG, TILBURG, Noord-Brabant, Netherlands",51.5567881,5.094772
"Ds Theodor Fliednerstr 2 , 5631BN, EINDHOVEN, Noord-Brabant, Netherlands",51.4532631,5.4900457
"Sint Josephstraat 106 -108, 5017GK, TILBURG, Noord-Brabant, Netherlands",51.5554672,5.0973396
"Tuinstraat 1 , 5531GK, BLADEL, Noord-Brabant, Netherlands",51.3720524,5.2303327
"Schadewijkstraat 13 , 5521HD, EERSEL, Noord-Brabant, Netherlands",51.35795290000001,5.3239636
"Pelkweg 6 , 7152JV, EIBERGEN, Gelderland, Netherlands",52.1000944,6.660288200000001
"Selhorst 25 , 7482LN, HAAKSBERGEN, Overijssel, Netherlands",52.16516859999999,6.7188579
"Huttendijk 6 , 7157BN, REKKEN, Gelderland, Netherlands",52.088311,6.7421253
"Huttendijk 6 , 7157BN, REKKEN, Gelderland, Netherlands",52.088311,6.7421253
"Adelbert van Scharnlaan 210 , 6224JX, MAASTRICHT, Limburg, Netherlands",50.8456295,5.7165042
"Zepperenbank 18 , 6213KD, MAASTRICHT, Limburg, Netherlands",50.8324921,5.6526723
"Educalaan 4 , 8251GC, DRONTEN, Flevoland, Netherlands",52.5254822,5.7134882
